全国地方公共団体コード,法人番号,ID,地方公共団体名,名称,名称_カナ,名称_英語,POIコード,所在地_全国地方公共団体コード,町字ID,所在地_連結表記,所在地_都道府県,所在地_市区町村,所在地_町字,所在地_番地以下,建物名等(方書),緯度,経度,高度の種別,高度の値,利用可能曜日,開始時間,終了時間,利用可能日時特記事項,料金(基本),料金(詳細),説明,説明_英語,アクセス方法,駐車場情報,車椅子可,車椅子貸出,ツエ貸出,バリアフリートイレ,スロープ、エレベータ、エスカレータ,点字ブロック等の移動支援,点字や読上による支援,盲導犬・介助犬、聴導犬同伴,字幕,筆談対応,優先駐車場,オストメイト対応トイレ,授乳室,おむつ替えコーナー,飲食可否,ベビーカー貸出,ベビーカー利用,連絡先名称,連絡先電話番号,連絡先内線番号,連絡先メールアドレス,連絡先FormURL,連絡先備考（その他、SNSなど）,郵便番号,画像,画像_ライセンス,URL,備考,
170003,,JJ0000000001,石川県,ゆけむりの宿　美湾荘,ユケムリノヤド　ビワンソウ,yukemurinoyado　biwanso,2304,172022,,石川県七尾市和倉町和歌崎3-1,石川県,七尾市,和倉町和歌崎,3-1,,37.08867251,136.9188668,,,,チェックイン15時00分　チェックアウト10時00分,,,"平日14,850円～（利用可能クレジットカード:VISA,MASTER,JCB等主要カード）",, 海の景色と新鮮な海の幸、そして極上の温泉で能登を満喫してください。エントランスの先に広がる海の景色に感動☆七尾湾の雄大な海の景色を、露天風呂はじめ館内の様々なスペースからご覧頂けます。日本海の海の幸をふんだんに活かしたお料理に舌鼓をうって、体の芯から温まる極上の温泉で極上の休日をお過ごしください。,,"能越道和倉ICより5分,交通アクセス(公共)",無料　150台,,,,,,,,,,,,,,,,,,,0767-62-2323,,,,,,,,http://www.biwanso.com,,
170003,,JJ0000000002,石川県,国民宿舎　能登小牧台,コクミンシュクシャ ノトオマキダイ,kokuminshukusha notomakidai,2311,172022,,石川県七尾市中島町小牧井部55,石川県,七尾市,中島町小牧井部,55,,37.143423,136.875179,,,,チェックイン　15時00分チェックアウト　10時00分			,,,"1人1室　6,600円～ ※詳しくはホームページをご覧ください。",,　能登半島国定公園の中にある宿舎「小牧台」です。七尾北湾の美しい景観、遠くは立山連峰を望めます。自慢の料理は、能登の変化に富んだ地形が育んだ四季折々の山海の幸を堪能できます。地元中島町特産の「牡蠣炭火焼」は、冬に人気の味覚です。食事に天然温泉の大浴場で、ゆったりくつろげます。,,"のと里山海道横田ICより車で10分			,交通アクセス(公共)",55台			,,,,,,,,,,,,,,,,,,,0767-66-1121,,,,,,,,http://www.omakidai.jp/,,
170003,,JJ0000000003,石川県,いこいの村能登半島,イコイノムラノトハントウ,ikoinomuranotohanto,2311,173843,,石川県羽咋郡志賀町志賀の郷温泉,石川県,志賀町,石川県羽咋郡志賀町志賀の郷温泉,,,37.0241699,136.7603417,,,,チェックイン　15時00分チェックアウト　10時00分,,,,,湯量が豊富な温泉と新鮮な魚介類を生かした料理、そして心を込めた「おもてなし」で利用客を出迎えてくれます。豊かな自然に囲まれた「いこいの村能登半島」は、ホテル、ペンション、別荘が立ち並ぶ能登最大級のリゾートエリア「志賀の郷」の中心部にあります。東京ドーム8個分の広大な敷地には、遊園地などのレジャー施設も充実しており、周辺にはテニスやゴルフなどができる数多くのスポーツ施設も充実しています。自由気ままに、充実した時間を過ごしてください。,,"のと里山海道 西山ICから約10分,",乗用車200台大型バス10台,,,,,,,,,,,,,,,,,,,0767-32-3131,,,,,,,,http://www.noto-ikoinomura.com,,
170003,,JJ0000000004,石川県,民宿 灯りの宿 まつだ荘,ミンシュク アカリノヤド　マツダソウ,minshuku akarinoyado　matsudaso,,172057,,石川県珠洲市飯田町26-42-1,石川県,珠洲市,飯田町,26-42-1,,37.438875,137.269428,,,,チェックイン　　16時00分チェックアウト　10時00分			,,,"1泊2食付き　8,800円～",,　能登半島の先端にある、夫婦で営む手作りの宿です。奥能登観光の拠点として利用すると、とても便利です。こだわりの料理は、旬の地元産の魚介類、栽培者がわかる野菜を使用しています。ペットと泊まれる部屋も好評です。,,"金沢駅から特急バスで能登空港まで2時間30分。能登空港よりふるさとタクシーで40分,",10台,,,,,,,,,,,,,,,,,,,0768-82-1117,,,,,,,,http://matsudasou.com,,
170003,,JJ0000000005,石川県,温泉民宿　漁火,オンセンミンシュク　イサリビ,onsemminshuku　isaribi,,172049,,石川県輪島市小池町小鵜入タ4,石川県,輪島市,小池町小鵜入タ,4,,37.3933557,136.8362371,,,,チェックイン15:00　チェックアウト10:00（要相談）,,,"1泊2食（大人）　8,000円～（消費税、入湯税別・R3参考料金）（クレジットカード使用不可）",, 懐かしく、非日常的な空間です。都会の雑踏から、一瞬でも離れてみませんか。人との触れ合いに気づいてみませんか。人の手で守り続けられた自然を、一緒に繋げていきましょう。　 　,,"・輪島市街から県道38号線で約20分,",有り（普通車10台　無料）,,,,,,,,,,,,,,,,,,,0768-22-2410,,,,,,,,https://wajimanavi.jp/inn/blog/introduce/isaribi/,,
170003,,JJ0000000006,石川県,温泉の宿　横岩屋,オンセンノヤド ヨコイワヤ,onsennoyado yokoiwaya,,172049,,石川県輪島市町野町曽々木ク-2,石川県,輪島市,町野町曽々木ク-,2,,37.458079,137.076161,,,,チェックイン 15:00チェックアウト 9:30,,,"1泊2食 9,500円（税、入湯税込）　※クレジットカード不可",,150年前の古民家を利用した囲炉裏を囲んで、能登の郷土料理を味わってください。,,"・輪島市街から国道249号線で珠洲方面へ約25分,・「曽々木口」バス停から徒歩10分",有り　8台,,,,,,,,,,,,,,,,,,,0768-32-0603,,,,,,,,https://wajima.gr.jp/yokoiwaya/index.htm,,
170003,,JJ0000000007,石川県,お宿　たなか,オヤド　タナカ,oyado　tanaka,,172049,,石川県輪島市河井町22-38,石川県,輪島市,河井町,22-38,,37.39085214,136.90132,,,,チェックイン  15:00チェックアウト  10:00,,,"和室：15.550円～特別室・和洋室：22,150円～特別料理は完全予約制（別料金）（クレジットカードはVISAカードのみ利用可）",,輪島の街中に佇む4組限定の大人の隠れ宿。館内は漆をふんだんに使い、壁には珪藻土や地元の土を。地元食材の旬料理を味わい、温泉風呂で疲れを癒す。能登の粋を泊まりながら体感できる大人限定の宿。,,"・金沢からのと里山海道経由約2時間（「のと里山空港IC」下車）・のと里山空港ICから約25分,・金沢駅から輪島特急バスで約2時間30分「輪島駅前」下車　徒歩10分",7台（無料）,,,,,,,,,,,,,,,,,,,0768-22-5155,,,,,,,,http://www.oyado-tanaka.jp/,,
170003,,JJ0000000008,石川県,輪風の宿　満月,ワフウノヤド　マンゲツ,wafunoyado　mangetsu,,172049,,石川県輪島市河井町20-1-44,石川県,輪島市,河井町,20-1-44,,37.389132,136.907148,,,,チェックイン　 15:30チェックアウト　9:00,,,"1泊2食付　11,480円～(R3参考料金)入湯税別150円（クレジットカード不可）",,柱や階段などは拭き漆塗りで、廊下は全て畳敷きです。広い階段を上ると2階は回遊式の廊下で、吹き抜けの天井は開放感があります。輪島塗の器を使用した季節の料理がおいしいと評判で、開放感が溢れる野天風呂も自慢です。,,"・金沢駅からのと里山海道経由で約2時間（のと里山空港IC下車）・のと里山空港ICから約20分,・金沢駅から輪島特急バス乗車約2時間30分　輪島駅前下車　徒歩5分",10台あり,,,,,,,,,,,,,,,,,,,0768-22-4487,,,,,,,,http://www.mangetsu.gr.jp/,,
170003,,JJ0000000009,石川県,民宿うかわ,ミンシュクウカワ,minshukukawa,,174637,,石川県鳳珠郡能登町鵜川20‐1‐1,石川県,能登町,石川県鳳珠郡能登町鵜川,20‐1‐1,,37.255569,137.083872,,,,チェックイン　15時00分～　チェックアウト　10時00分			,,,"1泊2食　7,700円～（税込み、大人数、長期滞在の方は応相談）			",,　海、山、川が目の前に広がる絶好のロケーションです。地物の魚料理も「絶品」と好評です。　近くには、町営の「温泉＆プール なごみ」があり、夜の漁火（いさりび）を眺めながら、露天風呂を満喫することができます。藤波台運動公園も程近く、サッカーやテニスができるので、スポーツの合宿の宿泊にも使うことができます。,,"のと里山海道能登空港ICより40分			,",17台,,,,,,,,,,,,,,,,,,,0768-67-1014,,,,,,,,,,
170003,,JJ0000000010,石川県,能登イタリアンと発酵食の宿　ふらっと,ノトイタリアントハッコウショクノヤド　フラット,notoitariantohakkoshokunoyado　furatto,,174637,,石川県鳳珠郡能登町矢波27字26番地の3　,石川県,能登町,石川県鳳珠郡能登町矢波,27字26番地の3　,,37.280108,137.099348,,,,,,,"20,350円～（税込）",,オーストラリア人の主人が作る能登イタリアンが自慢です。能登の郷土食や新鮮な魚介類を使ったイタリアンでパスタは毎日手打ちの生めん、すべてシーフードのコースです。一日三組限定で、ジャズの流れる空間でオーストラリアワインとともにお楽しみください。,,",",,,,,,,,,,,,,,,,,,,,0768-62-1900,,,,,,,,http://flatt.jp/,,
170003,,JJ0000000011,石川県,民宿ふわ,ミンシュクフワ,minshukufuwa,,174637,,石川県鳳珠郡能登町宇出津ウ124,石川県,能登町,石川県鳳珠郡能登町宇出津ウ,124,,37.304946,137.150019,,,,チェックイン　16時00分～チェックアウト　10時00分			,,,"1泊2食7,700円～上記の料金は消費税など込みの金額です。（クレジットカード不可）",,　能登町名産「いしり」を使った「貝焼」など、郷土料理や季節折々の食材と共にに、能登の田舎ならではの温かい雰囲気でもてなしてくれます。,,"のと里山海道能登空港ICより30分			,",7台			,,,,,,,,,,,,,,,,,,,0768-62-0150,,,,,,,,,,
170003,,JJ0000000012,石川県,欧風民宿能登錦,オウフウミンシュクノトニシキ,ofuminshukunotonishiki,,173843,,石川県羽咋郡志賀町志賀町上野ロ-86,石川県,志賀町,石川県羽咋郡志賀町志賀町上野ロ-,86,,37.014904,136.744746,,,,,,,10室（6畳）,,上野漁港を見下ろす高台に建つ欧風の民宿です。朝夕の出船やイカ釣り船の漁り火など、日本海のさまざまな表情を窓の外に見ることができます。特に、夕日の眺めは最高です。いろりを囲む会食、海鮮炭火焼きも楽しめます。,,"のと里山海道西山ICより約10分JR羽咋駅より車で約25分,",20台,,,,,,,,,,,,,,,,,,,0767-32-4388,,,,,,,,,,
170003,,JJ0000000013,石川県,ペンション＆カフェ クルーズ,ペンションアンドカフェ クルーズ,penshonandokafue kuruzu,,173843,,石川県羽咋郡志賀町矢蔵谷子の4番地32,石川県,志賀町,石川県羽咋郡志賀町矢蔵谷子の,4番地32,,37.01839466,136.7704736,,,,チェックイン　　15時00分チェックアウト　10時00分,,,,,たくさんの手作りキルトやブリキのおもちゃ、数々のアンティーク。ヨーロッパの片田舎のようなこだわりのインテリアの中、和洋折衷クルーズ流おもてなし料理や貸切風呂でゆったり。日常を忘れておくつろぎ下さい。,,"のと里山海道西山ICから7分,",11台,,,,,,,,,,,,,,,,,,,0767-32-3896,,,,,,,,https://pension-cruise.com/,,
170003,,JJ0000000014,石川県,内灘町サイクリングターミナル,ウチナダマチサイクリングターミナル,uchinadamachisaikuringutaminaru,,173657,,石川県河北郡内灘町内灘町宮坂に1-3,石川県,内灘町,石川県河北郡内灘町内灘町宮坂に,1-3,,36.665634,136.652327,,,,チェックイン　15時00分～　チェックアウト　～10時00分			,,,"一般（高校生以上）　　  　　　　和室　4,150円～　　洋室シングル・ツイン　6,150円～　　中学生　　　　　　　　　　　　　　　和室　3,050円～　　洋室シングル・ツイン　5,150円～　小学生以下４歳以上　  　 　　和室　2,900円～　　洋室シングル・ツイン　5,000円～　　　　　　　（利用可能クレジットカード：有り）",,　能登半島の付け根に位置し、金沢市街にも近いため、加賀・能登観光のアクセス拠点として最適です。施設周辺は海岸などの自然に囲まれ、県内随一の眺望スポットとして人気。スポーツ施設も充実しており、リゾート型スポーツを楽しんだり、合宿するのにも便利です。ファミリーには小さい子供が喜ぶ大型遊具（海族船サンセット号）があり、また、手ぶらで来てすぐできる野外バーベキューもおすすめです(要予約）。,,"・北陸自動車道　金沢東ICから20分・JR金沢駅より25分,JR金沢駅から北鉄バス乗車医大病院下車、徒歩約20分(約1.5Km)北鉄金沢駅から浅野川線内灘駅下車後内灘駅より鶴ヶ丘住宅線にて内灘町総合公園下車徒歩約1分(約150m)",無料有り（内灘町総合公園内　100台以上）,,,,,,,,,,,,,,,,,,,076-286-3766,,,,,,,,http://www.nadasta.com,,
170003,,JJ0000000015,石川県,竹の浦館,タケノウラカン,takenorakan,,172065,,石川県加賀市大聖寺瀬越町イ19-1,石川県,加賀市,大聖寺瀬越町イ,19-1,,36.295948,136.264586,,,,9時00分～17時00分,,,無料利用可能クレジットカード　なし,,木造校舎を活かした体験交流施設で、2003（平成15）年にオープンしました。地域住民の交流の場で、さまざまな自然体験ができます。館内では、料理教室や工芸教室が開催され「多目的ホール」はコンサート会場やギャラリーとして使用できます。ホールでは展示販売も可能です。「食」に関する活動として、昔ながらの発酵食品に目を向け、自家製の「へしこ」やたくわん、味噌などの体験教室を行なっており、販売もしています。最近は特に「酢」に力を入れており、筍酢、梨酢、濃～いいちご酢、なども製造販売しています。またキャンプ場も併設しています。,,"北陸自動車道加賀ICから車で約7分JR大聖寺駅から車で約10分JR加賀温泉駅から車で約15分,JR加賀温泉駅から加賀周遊バス　キャンバス加賀越前線　→　36 竹の浦館バス停からすぐJR加賀温泉駅から普通列車で4分（福井方面へ1駅）　→　JR大聖寺駅から約5.3m",乗用車約30台,,,,,,,,,,,,,,,,,,,0761-73-8812,,,,,,,,https://takenourakan.storeinfo.jp/,,
170003,,JJ0000000016,石川県,道の駅　狼煙,ミチノエキ　ノロシ,michinoeki　noroshi,,172057,,石川県珠洲市狼煙町テ部11,石川県,珠洲市,狼煙町テ部,11,,37.52596051,137.3243649,,,,8時30分～17時00分（季節によって変更になる場合があります）,,,入場無料クレジットカード可（VISA、Master、PayPay、LINEPay）,,　能登半島さいはてに位置する狼煙には、観光スポットとなる禄剛埼(ろっこうさき)灯台があります。岬からは、「海から昇る朝日と、海に沈む夕日」を同じ場所で眺めることができます。 　道の駅狼煙では、復活した幻の大浜大豆と珠洲産天然にがりを使用した凝固剤一切不使用の地豆腐を始め、里山里海の食材や手作り工芸品なども販売しております。,,"金沢方面からのと里山海道のと里山空港IC、珠洲道路経由約2時間40分のと里山空港から珠洲道路経由　約55分輪島方面から国道249号経由　約50分,",大型７台、普通車７１台（身障者用４台）、バイク専用８台,,,,,,,,,,,,,,,,,,,0768-86-2525,,,,,,,,https://noroshi.info,,
170003,,JJ0000000017,石川県,道の駅　すず塩田村,ミチノエキ　スズエンデンムラ,michinoeki　suzuendemmura,,172057,,石川県珠洲市清水町1-58-1,石川県,珠洲市,清水町,1-58-1,,37.486335,137.113786,,,,3月～11月：9時00分～17時00分12月～2月：9時00分～16時00分,,,"【資料館入館料】　大人100円,小人(中学生以下)50円",,能登地方に400年以上前から伝わる「揚げ浜式」による製塩を行いながら、その伝統を伝えるために造られた塩の総合資料館です。美しい景色を眺めながらの休憩やご当地土産の購入、揚げ浜式製塩の体験(要予約)など、さまざまな用途で利用できます。,,"珠洲市より国道249号経由　約30分輪島市より国道249号経由　約30分,",普通車30台・大型車6台・身障者用3台（無料）			,,,,,,,,,,,,,,,,,,観光バスが来ている時間と重なると電話に出れないことがあります,0768-87-2040,,,,,,,,http://enden.jp,,
170003,,JJ0000000018,石川県,道の駅　すずなり,ミチノエキ　スズナリ,michinoeki　suzunari,,172057,,石川県珠洲市野々江町シ-15,石川県,珠洲市,野々江町シ-,15,,37.44145125,137.2700942,,,,8時30分～18時00分,,,（クレジットカード不可）,,　平成22年4月、食べ物と人の交流拠点として、のと鉄道の旧珠洲駅にリニューアルオープンしました。地元珠洲の情報が満載です。店内には珠洲のこだわり商品がたくさん並んでいます。揚げ浜塩を使ったソフトクリームや、季節ごとに変わるご当地ソフトなど、ここでしか味わえないアイスにも大注目。　地元の採れたて新鮮野菜をはじめ、珠洲焼、珪藻土コンロ、いも菓子などの菓子類、珠洲の塩など、珠洲産にこだわり抜いた商品を扱っています。,,"のと里山海道・珠洲道路経由約2時間30分国道249号経由約50分,",大型車3台　普通車39台　障害者用2台（無料）,,,,,,,,,,,,,,,,,,,0768-82-4688,,,,,,,,http://www.notohantou.jp/,,
170003,,JJ0000000019,石川県,道の駅 千枚田ポケットパーク,ミチノエキ　センマイダポケットパーク,michinoeki　semmaidapokettopaku,,172049,,石川県輪島市白米町ハ部99-5,石川県,輪島市,白米町ハ部,99-5,,37.424179,136.997614,,,,8:30～17:30（あぜのきらめき期間中8:30～20:00）※3月15日(火)からはあぜのきらめき終了に伴い、8:30～17:30になります。※新型コロナウイルスの感染拡大状況により営業時間が変更となる場合もあります。,,,,,能登を代表する絶景ポイントです。景勝地「白米千枚田」が一望できます。能登半島周遊の立ち寄りスポットとして人気です。田植えや稲刈り、あぜのきらめきなどのイベントがあります。2022年3月15日(火)からはあぜのきらめき終了に伴い、営業時間は通常の8:30～17:30となっております。,,"・金沢からのと里山海道経由で約2時間20分（「のと里山空港IC」下車）・のと里山空港ICから約35分,・金沢駅から輪島特急バス乗車約2時間30分「輪島駅前」下車(乗り換え)→輪島駅前から路線バス町野線「白米千枚田」下車",自家用車51台、バス5台,,,,,,,,,,,,,,,,,,株式会社　千枚田,0768-34-1004,,,,,,,,http://senmaida.wajima-kankou.jp/,,
170003,,JJ0000000020,石川県,道の駅輪島（ふらっと訪夢）,ミチノエキワジマ（フラットホーム）,michinoekiwajima（furattohomu）,,172049,,石川県輪島市河井町20-1-131,石川県,輪島市,河井町,20-1-131,,37.389371,136.906015,,,,8:30～18:00（わじま観光案内センター）,,,		,,輪島に着いたら、まずここへ。旧輪島駅の跡地にある「道の駅 輪島」、愛称「ふらっと訪夢（ほーむ）」です。営業時間は、8:30～18:00（年中無休）です。令和4年4月2日(土)から8:30～17:00に営業時間が変更となります。,,"・金沢からのと里山海道経由約2時間(「のと里山空港IC」下車)・のと里山空港ICから約20分,・金沢駅から輪島特急バス乗車約2時間30分「輪島駅前」下車",普通車12台、大型8台、身障者用2台			,,,,,,,,,,,,,,,,,,,0768-22-1503,,,,,,,,https://wajimanavi.jp,,
170003,,JJ0000000021,石川県,道の駅　桜峠  　,ミチノエキ　サクラトウゲ,michinoeki　sakuratoge,,174637,,石川県鳳珠郡能登町字当目2-24-24,石川県,能登町,石川県鳳珠郡能登町字当目,2-24-24,,37.331949,137.013073,,,,9時00分～17時00分1～3月　10時00分～16時00分,,,クレジットカード不可,,ここで一息、ティーブレイク。ファンに愛されるアットホームな道の駅です。店内には「能登人」の優しさがたっぷり詰まったの特産品が数多くあります。能登町の思い出にお土産を買うことができます。ブルーベリーソフトと揚げたてカレーパンはお店のイチオシです。また能登の観光パンフレットも置いてありますので、情報収集にも活用してください。休憩に、買い物に、食事に、ぜひ道の駅・桜峠へ。,,"のと里山海道のと里山空港ICから珠洲道路を珠洲市方面に15分能登空港から車で10分,",大型車 3台普通車　 29台身障者用 1台,,,,,,,,,,,,,,,,,,,0768-76-1518,,,,,,,,https://www.michi-no-eki.jp/stations/view/469,,
170003,,JJ0000000022,石川県,道の駅　のと里山空港,ミチノエキ　ノトサトヤマクウコウ,michinoeki　notosatoyamakuko,,172049,,石川県輪島市三井町洲衛10-11-1,石川県,輪島市,三井町洲衛,10-11-1,,37.295072,136.957185,,,,(ビル) 8:30～17:30(能登の旅 情報センター) 9:00～17:00(レストランあんのん) 9:00～16:00,,,,,能登空港の施設全部が道の駅！　4階建ての空港ターミナルには、各種行政機関も入っていて、空だけでなく、道の駅としても活用されている。1階の観光インフォメーションや1、2階の売店、3階のレストランなどとても便利です。,,"能越自動車道のと里山空港ICから珠洲方面へ約5分輪島市から約25分珠洲市から約55分七尾市(和倉温泉)から約50分,",,,,,,,,,,,,,,,,,,,,0768-26-2555,,,,,,,,http://www.hot-ishikawa.jp/notonavi/,,
170003,,JJ0000000023,石川県,道の駅　赤神,ミチノエキ　アカカミ,michinoeki　akakami,,172049,,石川県輪島市門前町赤神壱-110,石川県,輪島市,門前町赤神壱-,110,,37.248314,136.709475,,,,9:00～17:00（冬季、時間変更有り）,,,,,禅の里・門前で「じんのびぃ」っとしまっし。日本海の水平線に沈む、あかね色の夕日はまさに絶景です。近くには、大本山總持寺祖院や泣き砂の浜もあります。手作りみそをはじめ地元特産品がずらりと並び、猿山岬灯台のランプが展示されているのは必見です。,,"・金沢からのと里山海道乗車約1時間40分（西山IC下車）・西山ICから約45分,・金沢駅から輪島特急バス乗車約2時間30分「輪島駅前」下車(乗り換え)→「輪島駅前」から路線バス(輪島線)「門前総持寺前」下車(乗り換え)→「門前総持寺前」から愛のりバス(久川コース)で「赤神」下車※本数が少ないためご注意ください",37台（大型車6台、普通車31台）,,,,,,,,,,,,,,,,,,,0768-45-1001,,,,,,,,https://wajimanavi.jp/,,
170003,,JJ0000000024,石川県,道の駅　とぎ海街道,ミチノエキ トギウミカイドウ,michinoeki togiumikaido,,173843,,石川県羽咋郡志賀町富来領家町タ-2-11,石川県,志賀町,石川県羽咋郡志賀町富来領家町タ-,2-11,,37.140164,136.724877,,,,9時00分～17時00分,,,,,浜辺に光るサクラ貝や、日本海の造形美が魅力です。店内には、貝細工や能登牛などの品が並びます。地元の特産品「活き甘エビ」の持ち帰りができるなど、海産物も扱っています。近くには、ギネス記録に認定されたこともある「世界一長いベンチ」をはじめ、サクラ貝を拾える増穂浦海岸(ますほがうらかいがん)、能登金剛、巌門などがあります。,,"のと里山海道西山ICから国道249号を北へ約25キロ金沢から約1時間15分,JR七尾線「羽咋駅」から「富来行」の路線バス「富来」バス停で下車し、徒歩約10分",普通車75台大型車3台身障者用1台,,,,,,,,,,,,,,,,,,,0767-42-0975,,,,,,,,http://togi-michinoeki.com/,,
170003,,JJ0000000025,石川県,道の駅　のとじま,ミチノエキ　ノトジマ,michinoeki　notojima,,172022,,石川県七尾市能登島向田町122-14,石川県,七尾市,能登島向田町,122-14,,37.137359,136.998241,,,,（情報コーナー） 9時00分～17時00分※営業時間の変更等がある場合がありますので、<a href=https://notojima-michinoeki.com/>公式ＨＰ</a>をご確認ください。,,,"利用可能クレジットカード:VISA,MasterCard",,能登観光の休憩スポットに選ぶなら、ここが一番おすすめです。地元の山海の幸を味わえる食事コーナーや、能登島の土産が揃った土産コーナー、新設された浜焼コーナーが特に魅力的です。,,"のと里山海道徳田大津JCT経由、和倉ICから約10キロ、約20分,JR七尾線和倉温泉駅下車、能登島交通（バス）で30分",大型車10台、普通車272台			,,,,,,,,,,,,,,,,,,,0767-84-0225,,,,,,,,http://notojima-michinoeki.com/,,
170003,,JJ0000000026,石川県,道の駅　なかじまロマン峠,ミチノエキ　ナカジマロマントウゲ,michinoeki　nakajimaromantoge,,172022,,石川県七尾市中島町中島ニ部1-19,石川県,七尾市,中島町中島ニ部,1-19,,37.130528,136.863199,,,,「Yahataすしべん中島店」と兼用店舗となります。すしべん中島店営業時間　7:00～20:00,,,メニューやお土産物によって異なります,,　国道249号沿いにある道の駅は、国指定無形民俗文化財「お熊甲祭り（おくまかぶと）」の深紅の枠旗（わくばた）をかたどった照明灯が目印で、レストランや特産品販売所、休憩所が一体となった建物があります。,,"のと里山海道横田IC下車、輪島方面へ5キロ 車で約7分JR七尾駅から国道249号を穴水方面へ約18キロ、車で約30分,",普通車14台、大型車12台、身障者用1台			,,,,,,,,,,,,,,,,,,2019年7月4日リニューアルオープンに伴い、TEL/FAXが変更しております。（旧0767-66-2151）,0767-66-0155,,,,,,,,,,
170003,,JJ0000000027,石川県,道の駅　能登食祭市場,ミチノエキ　ノトショクサイイチバ,michinoeki　notoshokusaiichiba,,172022,,石川県七尾市府中町員外13-1　県道132号線七尾港線沿い,石川県,七尾市,府中町員外,13-1　県道132号線七尾港線沿い,,37.049024,136.968912,,,,8時30分～18時00分（グルメ館は店舗により異なる）※新型コロナウイルス感染症のため、令和3年1月21日～当面の間営業時間に変更あり。　詳細はこちらの「<a href=http://www.shokusai.co.jp/event/2021/01/113.html>公式ホームページのお知らせ</a>」でご確認ください。,,,入場無料,,能登食祭市場では「いい品・いい味・いい接遇」をモットーに、厳選した能登の味を多数取り揃えております。1階には能登の新鮮な魚介類を取り扱う「能登生鮮市場」、能登各地の里山里海の伝統的な味を体感できる「里山里海小路」、こだわりの能登の名産品・伝統工芸品を取り揃えた里山里海百貨店「里乃蔵」、大人気の「浜焼きコーナー」があります。2階は能登の旬の味覚を存分に楽しめる「能登グルメ館」があり、ごゆっくりとお楽しみいただけます。　　　　　　　　　　　　　また、「道の駅」「みなとオアシス」にも認定されております。「能登食祭市場」で能登を楽しみ・味わってください！,,"JR七尾駅より徒歩10分金沢方面　のと里山海道・高田ICから 約15分富山方面　能越自動車道・七尾城山ICから 約12分,",普通車250台 大型バス15台,,,,,,,,,,,,,,,,,,,0767-52-7071,,,,,,,,http://www.shokusai.co.jp/,,
170003,,JJ0000000028,石川県,道の駅　いおり,ミチノエキ　イオリ,michinoeki　iori,,172022,,石川県七尾市庵町笹ヶ谷内3-1,石川県,七尾市,庵町笹ヶ谷内,3-1,,37.028706,137.04653,,,,灘わくわく市場　10時00分～16時00分			,,,土産などにより異なります			（クレジットカード不可）,,　能登立山シーサイドライン沿いに建つ「道の駅」からは、灘浦海岸を一望することができます。　,,"能越自動車道七尾大泊ICから国道160号を七尾方面へ約5分のと鉄道七尾線七尾駅から車で約20分,",普通車52台、大型車5台			,,,,,,,,,,,,,,,,,,,0767-59-1415,,,,,,,,,,
170003,,JJ0000000029,石川県,道の駅　ころ柿の里しか,ミチノエキ コロガキノサトシカ,michinoeki korogakinosatoshika,,173843,,石川県羽咋郡志賀町末吉新保向22番地1,石川県,志賀町,石川県羽咋郡志賀町末吉新保向,22番地1,,37.00743465,136.7795652,,,,【旬菜館】　　平　日　9時00分～17時30分　土日祝　9時00分～18時30分【アクアパーク　シオン】　　温　　　泉　  9時00分～23時00分　プ　ー　ル　  9時00分～22時00分　レストラン　11時00分～21時00分,,,【温　泉】　大人（12歳以上）500円、小人250円、3歳未満無料、障がい者（大人）350円、障がい者（小人）無料【プール】　大人（12歳以上）550円、小人300円、3歳未満無料、障がい者（大人）380円、障がい者（小人）無料【温泉＆プール】　大人（12歳以上）800円、小人400円、3歳未満無料、障がい者（大人）560円、障がい者（小人）無料,,温泉施設「アクアパーク シ・オン」や、町の特産品や近隣農家直送の農産物を販売する「みちのえき 旬菜館」などがあります。千古温泉「しらさぎの湯」に漬かって、「ほっ」と一息つきませんか。,,"のと里山海道西山ICから約3分羽咋市より国道249号を北に約20分,JR七尾線「羽咋駅」から「富来行」の路線バス「高浜」下車し、徒歩約10分",ありRVパーク5台,,,,,,,,,,,,,,,,,,直売所「旬菜館」,0767-32-4831,,,,,,,,http://syunsaikan-shika.jp/,,
170003,,JJ0000000030,石川県,道の駅　高松,ミチノエキ　タカマツ,michinoeki　takamatsu,,172090,,石川県かほく市二ツ屋フ16-3,石川県,かほく市,二ツ屋フ,16-3,,36.786305,136.724686,,,,■営業時間・上下線　　９：００から１８：００,,,,,のと里山海道の高松ICと米出ICの中間にあり、売店には近隣の特産物やスイーツが充実しています。ドライブ中のひと休みにどうぞ。また、日本海の夕日が一望でき、水平線に沈む夕日がロマンチックです。ここだけのオリジナルメニューとともに、特別な時間をお過ごしください。一般道からもご利用頂けますので、県立看護大ICを目印にお越しください。,,"北陸自動車道金沢西ICからのと里山海道を七尾方面へ25分JR七尾線高松駅から車で約7分,かほく市福祉巡回バス",【里山館】[のと里山海道側]身障者 2台　小型 106台　大型 9台　[一般道路側]身障者 2台　小型 92台【里海館】[のと里山海道側]身障者 1台　小型 97台　大型 8台　[一般道路側]小型 6台,,,,,,,,,,,,,,,,,,,076-281-2221,,,,,,,,http://tak-rest.com/,,
170003,,JJ0000000031,石川県,道の駅　内灘サンセットパーク,ミチノエキ　ウチナダサンセットパーク,michinoeki　uchinadasansettopaku,,173657,,石川県河北郡内灘町大学1丁目4-1,石川県,内灘町,石川県河北郡内灘町大学,1丁目4-1,,36.659151,136.648919,,,,駐車場・トイレ　24時間開放,,,,,内灘町の高台に位置する道の駅「内灘サンセットパーク」は、日本海と河北潟にはさまれ、白山から立山まで見渡せる絶好のロケーション。サンセットブリッジ内灘のライトアップも間近で見ることができ、デートスポットとしても人気を集めています。地元内灘町や石川県内各地の美味しいものがギュッと詰まったお土産コーナー「OTAKARA MARKET」であなただけのお気に入りを発掘するのはいかがでしょう？飲食コーナーでは、色とりどりの目にも鮮やかなスイーツや野菜たっぷりのフードが堪能できます！新しくなった道の駅内灘サンセットパーク、是非お越しください！,,"ＪＲ金沢駅より約20分、北陸自動車道金沢東ＩＣより約20分,北陸鉄道浅野川線内灘駅より北陸鉄道バス医大病院ゆき約10分→金沢医科大学病院前下車→徒歩すぐ内灘町コミュニティバス全町ルート約25分→内灘サンセットパーク下車すぐ",有り,,,,,,,,,,,,,,,,,,,--,,,,,,,,https://u-sp.jp,,
170003,,JJ0000000032,石川県,道の駅　こまつ木場潟※当面の間、営業時間変更,ミチノエキ　コマツキバガタ,michinoeki　komatsukibagata,,172031,,石川県小松市蓮代寺町ケ2-2,石川県,小松市,蓮代寺町ケ,2-2,,36.3697242,136.4626293,,,,※当面の間、時短営業直売所「旬菜市場じのもんや」　8時30分～18時00分（季節変動あり）レストラン「味処 四季彩」　10時～16時30分(L.O.16時00分),,,,,国道8号バイパス蓮代寺ICのすぐそばにあり、アクセスも良好です。「おいしさとやすらぎが出会う駅」として小松市のさまざまな情報を発信する施設となっています。　農家レストラン「味処四季彩」では、炊きたての小松市産米「蛍米」など地元食材をふんだんに使用したメニューや、松尾芭蕉も愛したという「小松うどん」などの小松の味を提供しています。直売所「旬彩市場じのもんや」では、採れたて新鮮な地元産農産物や、加工品なども盛りだくさん。小松市産のトマトをふんだんに使い、水を一切使用せずトマトの水分だけで仕上げた「トマトカレー」はお薦めの一品です。すぐ近くには、白山の眺望が良く、市民の憩いの場として知られる木場潟公園があり、散策やサイクリングを楽しむ事ができます。,,"北陸自動車道小松ICより20分(約15Km)JR北陸本線小松駅より車20分(約10Km)JR北陸本線粟津駅より車10分(約5Km)小松空港より車20分(約15Km),",,,,,,,,,,,,,,,,,,,,0761-25-1188,,,,,,,,http://www.michinoeki-kibagata.com/,,
170003,,JJ0000000033,石川県,道の駅　瀬女,ミチノエキ　セナ,michinoeki　sena,,172103,,石川県白山市瀬戸寅163-1,石川県,白山市,瀬戸寅,163-1,,36.288121,136.649387,,,,道の駅 瀬女9時00分～17時30分（11月下旬～3月中旬は17時00分まで）,,,,,　国道157号と360号の合流点に位置し、岐阜県と福井県につながる要所です。周囲を1000メートル級の山々に囲まれ、新緑、紅葉、雪景色など、四季折々の風景が楽しめます。　　店内は、白山麓の地産食品や民芸品を数多く取りそろえており、人気の休憩所となっています。　パン工房を併設していて焼きたてのパンを販売しています。　広々ドッグランもあります。,,"北陸自動車道白山ICから国道157号で尾口へ約40分,",普通車20台、大型車4台,,,,,,,,,,,,,,,,,,,076-256-7172,,,,,,,,http://city-hakusan.com/shopping/road_station_sena/,,
170003,,JJ0000000034,石川県,浅井畷古戦場,アサイナワテコセンジョウ,asainawatekosenjo,,172031,,石川県小松市大領町つ137・138番地,石川県,小松市,大領町つ,137・138番地,,36.3826982,136.4511038,,,,,,,,,1600（慶長5）年8月9日、関ヶ原合戦の前哨戦として、金沢城主・前田利長の軍勢（東軍方）と小松城主・丹羽長重（西軍方）の軍勢が戦った古戦場です。この浅井畷の戦功によって、前田家は加越能3か国の領有を確実にしました。戦いでは前田軍の最後尾にいた長連龍の部下9人が戦死したと伝えられており、古戦場には9基の石塔が建てられています。墓塔の形をとっていますが、埋葬を伴うものではなく、戦いの後、一定期間を経て建立された供養塔ともいうべきものです。万治3（1660）年に建てられた堀内一秀塔が最も古いものです。,,"小松駅から車で20分国道305号線経由約10分(約3Km),",なし,,,,,,,,,,,,,,,,,,小松市文化振興課,0761-24-8130,,,,,,,,https://www.city.komatsu.lg.jp/material/files/group/13/pref006asainawatekosennj.pdf,,
170003,,JJ0000000035,石川県,浅蔵五十吉深香陶窯,アサクライソキチシンコウトウヨウ,asakuraisokichishinkotoyo,,172031,,石川県小松市八幡九谷ヶ丘己50-1,石川県,小松市,八幡九谷ヶ丘己,50-1,,36.399928,136.490049,,,,,,,,,三代・浅蔵五十吉さん（日展評議員）は九谷焼の五彩釉を現代的に彩色し、彫刻の技法を用いて表現するなど、伝統の技術を生かしながら、常に新しい試みをしています。 日本芸術院会員・文化功労者・文化勲章受章者の二代五十吉の志を受け継ぐ深香陶窯では、洗練された造形、独創的な上絵で現代九谷をリードし、九谷焼の可能性を追求し続けています。四代目を継ぐ娘さん夫妻も深香陶窯で作陶に取り組んでおり、作品の展示・即売も可能です。作陶作業の流れのほか、二代、三代五十吉さんの大作などが並ぶ展示室を見学できます。,,"北陸自動車道小松ICから車で20分JR小松駅から車で10分,",乗用車用あり（大型バスは要相談）,,,,,,,,,,,,,,,,,,,0761-47-0051,,,,,,,,,,
170003,,JJ0000000036,石川県,「文学の故郷」碑（馬場小学校内）,「ブンガクノコキョウ」ヒ（ババショウガッコウナイ）,「bungakunokokyo」hi（babashogakkonai）,,172014,,石川県金沢市東山3-9-30　馬場小学校内,石川県,金沢市,東山,3-9-30　馬場小学校内,,36.574744,136.665618,,,,,,,,,　馬場小学校の前庭にあります。同小学校の卒業生である徳田秋声、泉鏡花、尾山篤二郎の作品から、郷土にちなんだ一節が刻まれています。,,"金沢駅から約10分(約3Km)北陸自動車道金沢東ICから約15分(約4Km),金沢駅から約15分「東山」バス停から徒歩2分",無し,,,,,,,,,,,,,,,,,,金沢市観光政策課,076-220-2194,,,,,,,,,,
170003,,JJ0000000037,石川県,あえの風,アエノカゼ,aenokaze,,172022,,石川県七尾市和倉町和歌崎8-1,石川県,七尾市,和倉町和歌崎,8-1,,37.088582,136.91974,,,,In 15:00 Out 10:00,,,"2名様一室 お一人様 29,850円より　※詳しくは直接お問い合わせ下さい。",,　全室七尾湾に面し、能登島を望むオーシャンビューが楽しめる温泉旅館。個室茶寮でショー（30分間）を見ながらの夕食、豊富な宿泊プラン、充実した施設のあえの風は加賀・能登の観光の拠点に最適です。季節感溢れるさわやかなおもてなしでお楽しみいただけます。,,"能越自動車道和倉ＩＣより車で約10分,JR和倉温泉駅よりマイクロバスで約10分（要予約）",乗用車 300台,,,,,,,,,,,,,,,,,,0767-62-2111（予約）,0767-62-3333,,,,,,,,https://www.aenokaze.jp,,
170003,,JJ0000000038,石川県,赤倉神社,アカクラジンジャ,akakurajinja,,172022,,石川県七尾市三引町13部75番地,石川県,七尾市,三引町,13部75番地,,37.052523,136.875122,,,,,,,,,　平安時代の末期まで、赤蔵山一本宮寺という修行僧の道場でした。120を数える小さな宿坊があったと伝えられています。また、藩政期には加賀藩家老、長家の手厚い保護の下「赤蔵大権現」として隆盛を誇りましたが、明治時代の神仏分離により、かつての社僧坊は取り壊され、現在は、怡岩院・栄春院・天神堂・釣鐘堂等が残されているのみです。神様と仏様を一緒に信仰してきた、神仏習合時代の面影が感じ取れます。 ,,"のと鉄道田鶴浜駅から車で10分,",20台,,,,,,,,,,,,,,,,,,七尾市文化課,0767-53-8437,,,,,,,,,,
170003,,JJ0000000039,石川県,赤蔵山憩いの森,アカクラヤマイコイノモリ,akakurayamaikoinomori,,172022,,石川県七尾市三引町,石川県,七尾市,三引町,,,37.051324,136.875376,,,,,,,無料,,　赤蔵山憩いの森は、起源が奈良時代までさかのぼる赤倉神社の境内を中心に、歴史遊歩道（起終点・経路:田鶴浜町・田鶴浜駅～東嶺寺～悦叟寺～赤蔵山登山口～拝殿～御手洗池～本殿～広葉樹の森展望台）をはじめ、展望台や芝生広場等を配した公園です。ここは、環境庁が全国名水百選の1つに選定した「御手洗池」があります。御手洗池の水は、聖武天皇の東宮（皇太子）が目の治療に重宝していたと伝えられています。現在は、訪れる人たちの喉を潤しています。,,"のと鉄道田鶴浜駅からタクシーで5分のと里山海道徳田大津ICより車で約15分			,",20台,,,,,,,,,,,,,,,,,,七尾市交流推進課,0767-53-8424 ,,,,,,,,,,
170003,,JJ0000000040,石川県,赤崎いちご園,アカサキイチゴエン,akasakiichigoen,,174637,,石川県鳳珠郡能登町布浦,石川県,能登町,石川県鳳珠郡能登町布浦,,,37.3567149,137.26545,,,,4月中旬～6月初旬※天候等により期間が前後する場合があります。,,,"中学生以上1,500円、小学生1,000円、幼児500円（クレジットカード不可）お土産：1パック800円",,石川県でいちご狩りと言えば「赤崎のいちご」と言われるほど、名が知られているスポットです。5月中旬に最盛期を迎える赤崎いちご園では真っ赤に完熟したいちごを摘み取りして楽しめます。お土産はお友達に美味しさと楽しさのお裾分けに喜ばれます。いちごの香りいっぱいのいちご園で初夏の旬を味わってみましょう！リピーターになること間違いなしです。一部ハウスでは4月中旬から摘み取りが可能です。,,"金沢駅から「のと里山街道」経由　車で約２時間のと里山海道能登空港ICより車で約45分輪島市街地から車で約１時間,",約50台、各農園に数台,,,,,,,,,,,,,,,,,,予約は各園へ,--,,,,,,,,https://notocho.jp/experience/1215/,,
170003,,JJ0000000041,石川県,赤崎海岸,アカサキカイガン,akasakikaigan,,174637,,石川県鳳珠郡能登町布浦,石川県,能登町,石川県鳳珠郡能登町布浦,,,37.35606,137.266921,,,,,,,,,　赤崎海岸は、青い波と対照的な赤茶色の岩礁を散りばめたような海岸です。これは溶結凝灰岩が長い年月にわたって内海のおだやかな波に浸食され、水面すれすれの岩盤地帯に姿を変えたものです。海中公園にも指定されており、赤い海岸線と青い海は、四季折々に素晴らしいコントラストをなし、訪れる人たちの心をとらえて離しません。　海岸段丘を形成する丘には、観光イチゴ園「赤崎いちご園」があり、4月下旬から6月中旬までイチゴ狩りが楽しめます。平島には長さ260メートルの釣り桟橋が架けられ、年中磯釣りが楽しめます。磯伝いに赤崎遊歩道が整備されており、散策も楽しめます。,,"のと里山海道能登空港ICより車で50分,",20台分あり,,,,,,,,,,,,,,,,,,能登町ふるさと振興課,0768-62-8526,,,,,,,,https://notocho.jp/experience/1284/,,
170003,,JJ0000000042,石川県,大杉神社のイチョウ,オオスギジンジャノイチョウ,osugijinjanoicho,,172031,,石川県小松市大杉町,石川県,小松市,大杉町,,,36.2534222,136.4988597,,,,,,,,,　大杉神社の大イチョウは、推定樹齢450年、高さはおよそ36メートルもあり、県内のイチョウの中でも有数の巨木です。小松市指定文化財　天然記念物(昭和44年),,"JR小松駅から約50分,",なし,,,,,,,,,,,,,,,,,,小松市文化振興課,0761-24-8130,,,,,,,,https://www.city.komatsu.lg.jp/material/files/group/13/city028osugijinjaityou.pdf,,
170003,,JJ0000000043,石川県,秋常山史跡公園,アキツネヤマシセキコウエン,akitsuneyamashisekikoen,,172111,,石川県能美市秋常町ヨ2-2,石川県,能美市,秋常町ヨ,2-2,,36.450093,136.518851,,,,（埋葬施設展示室オープン時間）9時00分～17時00分,,,無料,,　1600年前に造られた北陸最大級（全長約140メートル）の前方後円墳（秋常山1号墳）と、埴輪（はにわ）を持つ方墳（秋常山2号墳）の2基の古墳が保存されています。　1号墳では、墳丘を覆っていた葺石（ふきいし）を、2号墳では埴輪が復元されており、その埋葬施設を間近で見学できる展示室も設けられています。　また、古墳頂上からの眺望が良く、晴れた日には日本海まで見渡すことができます。　園内は、緑豊かな自然公園としても整備されており、サクラ、ツツジ、アジサイ、ヒガン花など四季折々の花も楽しむことができます。,,"北陸自動車道能美根上スマートICから車で15分,",47台（大型2台、普通44台、おもいやり1台）無料,,,,,,,,,,,,,,,,,,能美ふるさとミュージアム,0761-58-5250,,,,,,,,https://www.city.nomi.ishikawa.jp/www/contents/1556174850772/index.html,,
170003,,JJ0000000044,石川県,秋葉神社,アキバジンジャ,akibajinja,,172014,,石川県金沢市金石西2-18,石川県,金沢市,金石西,2-18,,36.6038963,136.5907043,,,,,,,,,　守護・富樫氏が建立したといわれる鎮火社。藩政時代には、金沢周辺に火の神を祀る神社がないため、藩主から度々、鎮火の祈祷を命ぜられたという。,,",",,,,,,,,,,,,,,,,,,,,076-268-8089,,,,,,,,,,
170003,,JJ0000000045,石川県,阿岸本誓寺(アギシコギクザクラ),アギシホンセイジ(アギシコギクザクラ),agishihonseiji(agishikogikuzakura),,172049,,石川県輪島市門前町南カ26,石川県,輪島市,門前町南カ,26,,37.254292,136.730456,,,,8:30～16:30,,,拝観自由（お志）,,"　能登最大級で最古といわれる、浄土真宗の寺院です。旧藩時代に触頭（ふれがしら）の格付をもった古寺で、前田藩からの通知を各寺院へ伝達するなど、重要な役割を果たしました。　現存する本堂は、寛政4（1792）年に再建立されたものですが、寺の開山はさらにさかのぼるといわれています。全国でも珍しい芽葺屋根の大本堂（県指定文化財）で2020年10月に修復工事が完了しました。　同寺が所蔵する1,000点以上の古文書の1つ1つからも、歴史の流れをうかがうことができます。うち、471点は県指定文化財です。　また、県指定天然記念物の「アギシコギクザクラ」があることで有名です。小さな花に約130枚もの花びらをつけ、つぼみから花の盛り、花が散る頃へと移り変わるにつれ、紅から桃色、淡雪色と七変化を見せます。",,"・金沢からのと里山海道経由で約1時間40分(「西山IC」下車)・西山ICから約45分,・金沢駅から輪島特急バス乗車約2時間30分「輪島駅前」下車(乗り換え)→「輪島駅前」から路線バス(輪島線)乗車「門前總持寺前」下車(乗り換え)→「門前總持寺前」から愛のりバス(久川コース)乗車「池田」下車　徒歩15分※乗り継ぎ時間が難しいと思われます",あり,,,,,,,,,,,,,,,,,,,0768-45-1355,,,,,,,,https://wajimanavi.jp/tourism/portfolio/agishihonganji/,,
170003,,JJ0000000046,石川県,（株）アクトリー,アクトリー,akutori,,172103,,石川県白山市水澄町375番地,石川県,白山市,水澄町,375番地,,36.489356,136.517797,,,,≪見学可能時間≫10時00分～16時00分,,,≪見学≫無料,,当社は産業廃棄物の焼却炉など廃棄物処理プラントを製造販売している企業です。大型プラントの製造を主としており、工場ではプラントの各パーツを製造、各パーツは工場から搬送され、プラント設置場所で据付されます。本社には廃棄物の分析を行うための分析室を備えています。特に見学者用の設備は設けていませんので、会社の紹介・プラントの説明はDVDによって行います。,,"北陸道自動車美川ICから約10分JR美川駅から約10分,JR加賀笠間駅から徒歩30分",バス1台またはバン3台程度可能,,,,,,,,,,,,,,,,,,,076-277-3325,,,,,,,,http://www.actree.co.jp/,,
170003,,JJ0000000047,石川県,アクロス高松（ジョイアクロス）,アクロスタカマツ(ジョイアクロス),akurosutakamatsu(joiakurosu),,172090,,石川県かほく市内高松ニ12,石川県,かほく市,内高松ニ,12,,36.7624393,136.7343667,,,,平日　10時00分～22時00分土日祝　10時00分～20時00分,,,各利用施設により異なります。,,スポーツ、文化活動を通して家族や仲間とのコミュニケーションを深めることができます。健康増進と、世代を越えた交流に役立つ総合スポーツ施設です。◆施設概要テニスコート、ゲートボール、ランニングコース、軽運動室、マシンジム、スタジオ、浴室（平湯、外湯、サウナ）、室内温水プール　他,,",JR高松駅から徒歩10分",300台,,,,,,,,,,,,,,,,,,,076-281-8000,,,,,,,,http://www.city.kahoku.ishikawa.jp/www/01/103/006/000/index_11789.html,,
170003,,JJ0000000048,石川県,朝市みやげ処,アサイチミヤゲドコロ,asaichimiyagedokoro,,172049,,石川県輪島市河井町1-94,石川県,輪島市,河井町,1-94,,37.396676,136.900915,,,,8:00～12:00,,,,,北陸の土産物がそろっています。「ひじきごはん」「めかぶ茶」が人気商品。朝市の休憩所としてお使いください。お茶のサービス、トイレもあります。,,"・金沢からのと里山海道経由約2時間(「のと里山空港IC」下車)※マリンタウン・朝市駐車場をご利用ください(午前中有料),・金沢駅から輪島特急バス乗車約2時間30分「輪島塗会館」バス停下車　徒歩10分","朝市駐車場利用(8:30～12:00有料　普通車300円)※2,000円以上お買い物された方は、無料駐車券進呈",,,,,,,,,,,,,,,,,,,0768-23-0070,,,,,,,,http://www.miyagedokoro.co.jp,,
170003,,JJ0000000049,石川県,あじさい寺（平等寺）,アジサイデラ（ビョウドウジ）,ajisaidera（byodoji）,,174637,,石川県鳳珠郡能登町寺分2-116,石川県,能登町,石川県鳳珠郡能登町寺分,2-116,,37.34825744,137.0877459,,,,なし,,,入山料　200円,,"　「あじさい寺」と呼ばれている平等寺は、約1000年前に荘園の宮寺として建立しました。空海の「広く世を救い、人々の幸せを施そう」という考えを理想として建てられたとも言われています。　身近な仏様として知られる弥勒菩薩などの「十三仏諸尊」が、先祖供養の本尊として祭られています。日本固有の常緑針葉樹「コウヤマキ」など、多くの文化財も有しています。　6月になると、約130種、4,000株の色とりどりのアジサイが境内を色鮮やかに染め上げます。6月下旬から約1ヶ月ほどが見頃です。春には約100本の桜、秋には200本ほどの木々が織り成す紅葉も楽しめます。",,"のと里山海道能登空港ICより車で約15分,",あり,,,,,,,,,,,,,,,,,,,0768-76-1311,,,,,,,,,,
170003,,JJ0000000050,石川県,安宅海浜公園,アタカカイヒンコウエン,atakakaihinkoen,,172031,,石川県小松市安宅町ル1－2,石川県,小松市,安宅町ル,1－2,,36.4239333,136.422756,,,,9時～日没（日曜日、祝日は17時まで）,,,"グラウンド：一般　1,300円/1日、　高校生以下　600円/1日",,"　市民の憩いの広場として利用されています。　「安宅の関」の近くに立地し、グラウンドや自由広場が整っています。 ◆施設概要・グラウンド　:　野球場、ソフトボール1面（9,626平方メートル）　・自由広場　:　天然芝（13,425平方メートル）。",,"JR小松駅より車で10分北陸自動車道小松ICより車で3分,",普通車90台(無料),,,,,,,,,,,,,,,,,,運動公園管理事務所,0761-24-3074,,,,,,,,https://komatsu-ccf.com/sports/ataka_seaside_park/,,
170003,,JJ0000000051,石川県,安宅公園,アタカコウエン,atakakoen,,172031,,石川県小松市安宅町タ140,石川県,小松市,安宅町タ,140,,36.4192278,136.4184506,,,,,,,入場無料,, 「歌舞伎十八番　勧進帳」で有名な「安宅の関跡」（県指定史跡）を中心とした歴史公園です。日本海に面したクロマツ林の中には、歌舞伎の名場面を再現した銅像や『勧進帳ものがたり館』、『「安宅の関」こまつ勧進帳の里』があり、義経伝説に思いを馳せることができます。また、「日本の歴史公園100選」に選定され、年間通して多くの観光客が訪れます。,,"北陸自動車道小松ICから車で5分,JR小松駅から路線バス「安宅線」乗車、安宅の関前下車で15分",有：無料,,,,,,,,,,,,,,,,,,小松市緑花公園課,0761-24-8101,,,,,,,,https://www.city.komatsu.lg.jp/soshiki/midoribanakouen/shinainokouen/2153.html,,
170003,,JJ0000000052,石川県,安宅の関,アタカノセキ,atakanoseki,,172031,,石川県小松市安宅町タ140-4,石川県,小松市,安宅町タ,140-4,,36.4194662,136.4180075,,,,9時～17時,,,勧進帳ものがたり館:大人300円 小人150円,,　1187（文治3）年、平家討伐に戦功のあった源義経が、兄頼朝の怒りに触れて、奥州平泉の藤原氏のもとに落ちのびようとし、一行が山伏姿に身をやつし、安宅の関にさしかかりました。　この時、関守富樫左衛門泰家に見とがめられましたが、弁慶の機知と勇気により、危うくその難を免れたという伝説が、勧進帳や謡曲で知られています。　関址は、日本海に面した小高い砂丘にあって松原に囲まれています。「安宅関址」の石標、関の宮、与謝野晶子歌碑などがあり、また一角に、日展作家故都賀田勇馬氏の制作による弁慶・関守富樫の大銅像や、資料、宝物を多数展示した「勧進帳ものがたり館」や、日本海を一望できるレストハウス「『安宅の関』こまつ勧進帳の里」があります。　その台石に刻まれた「智・仁・勇」は、寄進者永井柳太郎（金沢出身の戦前の政治家）の筆になるもので、弁慶・関守富樫の心情を端的に表しています。石川県指定史跡です。,,",JR小松駅から　北鉄バス「安宅の関前」バス停下車　徒歩3分小松空港から　EVバス（安宅住吉神社行き）「安宅住吉神社」バス停下車",50台,,,,,,,,,,,,,,,,,,「安宅の関」こまつ勧進帳の里,0761-21-6734,,,,,,,,https://www.city.komatsu.lg.jp/soshiki/kankoubunka/kankou_shoku/5/2482.html,,
170003,,JJ0000000053,石川県,アッピー鹿西,アッピーロクセイ,appirokusei,,174076,,石川県鹿島郡中能登町能登部下134－1,石川県,中能登町,石川県鹿島郡中能登町能登部下,134－1,,36.9545784,136.8653319,,,,,,,,,　能登部町能登部下にある、多目的広場や文化施設などを備えた一大安らぎゾーンです。1996（平成8）年6月には、「能登上布会館」が完成しました。住環境整備事業により多目的広場をはじめ、ジョギングコース、植樹、築山などが整備されています。 ◆施設概要　芝生広場　ゲートボール2面、グラウンドゴルフ、サッカーなどができます。　多目的芝生広場　サッカー、グラウンドゴルフができるコートが2面、散策路や親水水路、桜並木もあります。　センター内　図書館、大ホール、イベントホール、カルチャーセンター飛翔があります。,,",JR能登部駅から徒歩10分",30台,,,,,,,,,,,,,,,,,,,0767-72-4555,,,,,,,,,,
170003,,JJ0000000054,石川県,アテの元祖,アテノガンソ,atenoganso,,172049,,石川県輪島市門前町浦上,石川県,輪島市,門前町浦上,,,37.304112,136.796129,,,,,,,,,1268（文永5）年、源氏の流れをくむ泉三郎忠衛が、平泉（現在の岩手県平泉町）からこの地に移り住んだ時に持ち込んだと伝えられています。胴回り4ｍ、高さ27ｍにもなる樹齢約800年の老木で、輪島塗の素材で県木でもあるアテの木の「元祖」と言われています。泉家の敷地内にあります。,,"・輪島市街から国道249号線で門前方面へ約25分,・輪島駅前から路線バス(輪島線)　浦上バス停下車　徒歩10分",あり,,,,,,,,,,,,,,,,,,,0768-42-1545,,,,,,,,https://wajimanavi.jp/tourism/portfolio/ate/,,
170003,,JJ0000000055,石川県,穴水城趾,アナミズジョウシ,anamizujoshi,,174611,,石川県鳳珠郡穴水町字川島,石川県,穴水町,石川県鳳珠郡穴水町字川島,,,37.230397,136.91384,,,,,,,,,　小又川（おまたがわ）河口の標高約60メートルの台地にあり、眼下に穴水港と市街地を望むことができます。1186（文治元）年、鎌倉時代の武将・長谷部信連が能登国大屋庄の地頭職に命ぜられて以来390年間、穴水城は長氏の居城でした。往時は、東西約550メートル、南北約450メートルの要害堅固な城で、現在は城趾公園として整備され、春には50本のソメイヨシノが咲き誇ります。,,",のと鉄道穴水駅から徒歩20分",5台（無料）,,,,,,,,,,,,,,,,,,穴水町政策調整課観光交流推進室,0768-52-3790,,,,,,,,,,
170003,,JJ0000000056,石川県,穴水町歴史民俗資料館,アナミズマチレキシミンゾクシリョウカン,anamizumachirekishiminzokushiryokan,,174611,,石川県鳳珠郡穴水町川島ラ-197-15,石川県,穴水町,石川県鳳珠郡穴水町川島ラ-,197-15,,37.228012,136.915845,,,,4月1日～10月31日　8時30分～17時00分11月1日～3月31日　9時00分～17時00分,,,大人100円、小・中・高校生50円（30人以上の団体は半額）,,　奥能登の玄関口にあたる穴水町は、古くから陸路と海路が交わる交通の要所でした。波静かな七尾北湾は、この地にさまざまな文化を育み、町の歴史に厚みをもたせました。このような地域性の中、穴水町の歴史を総合的に調査・研究し、散逸しがちな歴史的文化的資料の収集と保管を目的として、1974（昭和49）年11月、穴水町歴史民俗資料館は完成しました。　資料館では、収集された貴重な資料を展示し、来館者の教養を高めると共に、学術文化の向上に役立てるよう取り組んでいます。,,",のと鉄道穴水駅より徒歩10分",5台（無料）,,,,,,,,,,,,,,,,,,,0768-52-2231,,,,,,,,,,
170003,,JJ0000000057,石川県,穴水湾,アナミズワン,anamizuwan,,174611,,石川県鳳珠郡穴水町川島,石川県,穴水町,石川県鳳珠郡穴水町川島,,,37.223836,136.913981,,,,,,,,,　穴水町の住民は、親しみを込めて七尾北湾を「穴水湾」と呼んでいます。　穴水湾は、四方を陸と島に囲まれたリアス式海岸で、大小多数の岬と入江からできています。海岸からは、別所岳や二子山を望むことができ、波静かな風景は湾というよりも湖に近い印象を与えます。　平安時代の歌人西行は「立ちかえり 辺津の入江に舟とめて いくたびも見む 能登の島山」と景色の美しさをたたえました。現在は、ヨットハーバーや、クロダイ・メバルの釣り場として有名です。,,",のと鉄道穴水駅下車徒歩10分",,,,,,,,,,,,,,,,,,,穴水町観光交流課,0768-52-3790,,,,,,,,,,
170003,,JJ0000000058,石川県,アプリコットパーク,アプリコットパーク,apurikottopaku,,172103,,石川県白山市蓮池町カ5-1,石川県,白山市,蓮池町カ,5-1,,36.502249,136.49758,,,,入園時間　日没まで,,,無料,,　水と緑へのアプローチをメインテーマとした、変化ある施設です。パットゴルフコース、水とふれあうアクアの森、蓮の池庭園、せせらぎ、太陽のステージ、多目的広場としての平成緑の広場、ゲートボール場、悠遊ふれあい広場などがあります。　◆施設概要・多目的広場（平成緑の広場）、太陽のステージ、水とふれあうアクアの森・悠遊ふれあい広場、ゲートボール場2面、砂あそび場（子供用）、池を配した蓮　の池庭園、パットゴルフ場18ホール,,"北陸自動車道美川ICから車で1分,",あり,,,,,,,,,,,,,,,,,,白山市美川支所総務課,076-278-8131,,,,,,,,,,
170003,,JJ0000000059,石川県,尼御前岬,アマゴゼンミサキ,amagozemmisaki,,172065,,石川県加賀市美岬町,石川県,加賀市,美岬町,,,36.356308,136.322554,,,,,,,無料,,源義経が、兄頼朝に追われ北陸路を奥州に落ちのびる際に同行していた尼御前が、これから先の旅路で足手まといになるのを憂えて身を投げたという伝説が残る岬。現在は峠として突き出ている部分は淡緑灰色～灰白色を呈する軽石凝灰岩の台地で、美しい松林と海岸草地に遊歩道が完備されています。この岬から北に続く千崎、塩浜の海岸は高さ5～10mの海蝕崖が発達し雄大な景観を示しています。,,"JR加賀温泉駅から約7.9Km北陸自動車道片山津ICから約4.5Km北陸自動車道加賀ICから約10.4Km,JR加賀温泉駅から加賀周遊バス キャン・バス海まわり→7尼御前岬バス停から約500m",,,,,,,,,,,,,,,,,,,加賀市経済環境部環境政策課,0761-72-7892,,,,,,,,,,
170003,,JJ0000000060,石川県,甘藷石碑,カンショセキヒ,kanshosekihi,,174637,,石川県鳳珠郡能登町内浦長尾,石川県,能登町,石川県鳳珠郡能登町内浦長尾,,,37.322393,137.256918,,,,,,,,,　浜谷七郎兵衛が、この地に初めて甘藷（かんしょ）、いわゆるサツマイモを持ち帰ったことを記念して建てられた石碑です。,,"のと里山海道能登空港ICより40分,",なし,,,,,,,,,,,,,,,,,,能登町ふるさと振興課,0768-62-8532,,,,,,,,,,
170003,,JJ0000000061,石川県,あやとりはし,アヤトリハシ,ayatorihashi,,172065,,石川県加賀市山中温泉河鹿町,石川県,加賀市,山中温泉河鹿町,,,36.2454605,136.3757395,,,,,,,,,"いけばな草月流家元勅使河原宏（てしがわらひろし）氏のデザインによるユニークなS字型の橋です。他に類のない形状と美しい紅紫色のモダンさ、橋上から眺める鶴仙渓は絶景です。また、九谷五彩をイメージしたライトアップ　<a href=""https://www.hot-ishikawa.jp/event/21402"">「KAKUSENKEI LIGHT」</a>毎夜開催しています。",,"北陸自動車道　加賀ICから約12.2km,JR加賀温泉駅から加賀周遊バス　キャンバス山まわり線　→　19 山中温泉 菊の湯･山中座バス停から約300m（1日３便）JR加賀温泉駅から北鉄加賀バス　温泉山中線（2番のりば）で約35分　→　山中温泉バスターミナルバス停から約650mJR加賀温泉駅から北鉄加賀バス　温泉山中線 栢野行き（2番のりば）で約35分　→　ゆげ街道バス停から約300m",有り,,,,,,,,,,,,,,,,,,山中温泉観光協会,0761-78-0330,,,,,,,,http://www.yamanaka-spa.or.jp/,,
170003,,JJ0000000062,石川県,荒俣峡,アラマタキョウ,aramatakyo,,172031,,石川県小松市赤瀬町,石川県,小松市,赤瀬町,,,36.3056068,136.4863991,,,,,,,,,大杉谷川中流に位置する景勝地で「加能八景」の一つに数えられます。周辺には400メートルほどの遊歩道も整備されており、蛇行した流れや河畔に点在する奇岩など、風光明媚な自然が観光客の目を楽しませています。紅葉の名所としても知られ、11月上旬～下旬が見ごろです。※紅葉に関しては、0761-46-1605（長寿庵）まで【加能八景】とは石川新聞（廃刊）が読者投票で選定したもので、下記の景勝地が選定されています。?白山比?神社、??利伽羅山、?卯辰山公園、?湯涌温泉、?見附島海岸、?橋立海岸、?赤瀬の荒俣峡、?能登金剛巌門,,"JR小松駅から車で約30分,",あり,,,,,,,,,,,,,,,,,,,--,,,,,,,,,,
170003,,JJ0000000063,石川県,アリス館志賀,アリスカンシカ,arisukanshika,,173843,,石川県羽咋郡志賀町赤住ヌ部21番地,石川県,志賀町,石川県羽咋郡志賀町赤住ヌ部,21番地,,37.059634,136.737529,,,,9時00分～16時30分,,,無料,,アリスとその仲間たちが原子力やエネルギー、電気について楽しく紹介しています。見て、触れて、参加できる展示がいっぱいです。屋外には芝生広場やサイクリングロードもあり、遊具施設やおもしろ自転車で家族みんなで楽しめます。,,"のと里山海道西山ICから車で約15分,",大型バス5台、乗用車50台,,,,,,,,,,,,,,,,,,,0767-32-4321,,,,,,,,http://www.rikuden.co.jp/alice/,,
170003,,JJ0000000064,石川県,あわづ温泉,アワヅオンセン,awazuonsen,,172031,,石川県小松市粟津温泉,石川県,小松市,粟津温泉,,,36.332811,136.447378,,,,,,,,,白山開山の祖 泰澄大師(たいちょうたいし）が開湯したといわれ、1300年の歴史を誇る北陸最古の温泉地・あわづ。霊峰白山に端を発する湯は効能にすぐれ、全国各地から湯治客が訪れているだけでなく、無色透明のなめらかな肌触りの湯は美人の湯として有名で、女性ファンが多くいるのも、あわづの湯の特徴。そして、あわづのお宿は全てが自家掘りの源泉を持っていること。そのため、お宿によって泉質と泉温が微妙に違うので、お宿ごとでの泉質と泉温を比べてみる楽しみができるのも、あわづの湯の楽しみ方。お湯だけではありません。あわづ温泉は「恋人の聖地」としても有名。江戸時代から語り継がれる「おっしょべ恋物語」は、若い男女が紆余曲折の末に大恋愛を成就させたお話。この恋物語にあやかろうと、多く恋人たちがこの地を訪れています。,,",JR小松駅より路線バス粟津温泉行きで30分",,,,,,,,,,,,,,,,,,,粟津温泉観光協会,0761-65-1834,,,,,,,,http://www.awazuonsen.com/,,
170003,,JJ0000000065,石川県,大王寺（あわづ温泉）,ダイオウジ（アワヅオンセン）,daioji（awazuonsen）,,172031,,石川県小松市粟津町ワ87の1 ,石川県,小松市,粟津町ワ,87の1 ,,36.330002,136.447792,,,,,,,無料,,　あわづ温泉の守護寺です。真言密教の寺で、約1300年前の養老2（718）年に泰澄大師（泰澄神融禅師）によって開かれました。　霊告に従い粟津の地を訪れた泰澄大師は、村人とともに温泉を掘り当てました。この時、その力に感嘆した住民の請いに応じて、泰澄大師は首に掛けた掛佛薬師如来と自ら刻した聖観世音菩薩を守護仏として残し、「泰應寺（たいおうじ）」と名付けました。これが開創の由来です。　本堂には本尊である一寸八分の掛佛「薬師如来」が、聖観音の円後光の中央上に掛けられ、貴重で稀なる秘仏として安置されています。,,"国道8号粟津IC下車約3分 JR粟津駅下車後バス・タクシーで約6分 小松空港から車で約20分 ,",,,,,,,,,,,,,,,,,,,,0761-65-1217,,,,,,,,https://www.daioji.net/,,
170003,,JJ0000000066,石川県,粟津公園,アワヅコウエン,awazukoen,,172031,,石川県小松市符津町念仏ケ3-1,石川県,小松市,符津町念仏ケ,3-1,,36.355094,136.420443,,,,受付時間　8時00分～17時00分,,,"屋内コート　（テニス）1面　コート貸し料は1時間1,000円 屋外コート　（テニス）5面　コート貸し料は1時間　600円 　※金額は変動する場合があります。詳細はお問い合わせください。",,　近場の交流スポットとして、親しまれています。テニス、卓球、グランドゴルフ、野球、ソフトボール、散歩、ジョギングなどのスポーツが楽しめます。桜の名所でもあり、イチゴなどの菜園もあります。＜施設概要＞・屋根つき広場　（1階）オムニコート、バスケットボール、テニス1面　（2階）会議室、トレーニングルーム・テニスコート　:　オムニコート5面・野球場　:　少年野球場、ソフトボール1面・多目的広場　:　少年サッカー1面,,",JR粟津駅から徒歩10分路線バス粟津温泉行き「粟津駅口」下車　徒歩１０分",普通車150台　バス4台(無料),,,,,,,,,,,,,,,,,,,0761-44-2280,,,,,,,,http://www3.hp-ez.com/hp/awadukouen-komaya/page1,,
170003,,JJ0000000067,石川県,粟津岳山,アワヅダケヤマ,awazudakeyama,,172031,,石川県小松市粟津町,石川県,小松市,粟津町,,,36.32787322,136.4475499,,,,,,,,,　718（養老2）年に泰澄大師によって発見されたとされる北陸最古の温泉、あわづ温泉の裏背にあります。　粟津おっしょべ公園から登り始め、杉木立や石仏が点在する石仏遊歩道を抜けると泰澄大師の石像があり、ここから平坦な山道が山頂まで1.6キロ続きます。　木々が繁り野鳥の声を聞きながら気軽に歩ける遊歩道で、山頂からは南加賀が一望でき、眼下には、いで湯の里が広がります。　お年寄りから子供まで楽しめる格好のハイキングコースです。,,"JR粟津温泉駅から車で約10分北陸自動車道　加賀ICから車で約25分,・JR小松駅より路線バス粟津線　乗車→「粟津温泉」下車・JR加賀温泉駅より加賀周遊バスキャンバス加賀小松線　乗車→「粟津温泉」下車",,,,,,,,,,,,,,,,,,,小松市観光文化課,0761-24-8076,,,,,,,,http://www.komatsuguide.jp/index.php/spot/detail/67/1/1/,,
170003,,JJ0000000068,石川県,安楽寺,アンラクジ,anrakuji,,172014,,石川県金沢市東兼六町11－1,石川県,金沢市,東兼六町,11－1,,36.560752,136.667577,,,,,,,,,　1604（慶長9）年に開寺した浄土宗寺院です（現在の建物は2004年に再建）。加賀藩前田家に仕えていた脇田氏によって建立されました。,,",",無し,,,,,,,,,,,,,,,,,,,076-262-6724,,,,,,,,,,
170003,,JJ0000000069,石川県,医王山,イオウゼン,iozen,,,,石川県金沢市～南砺市（富山県）にまたがっている,石川県,,,,,36.512758,136.795943,,,,,,,,,　金沢市の東方、奥医王山（標高939メートル）及び白兀山（標高896メートル）を中心とする一帯で、富山県に接しています。金沢市の近郊にありながら、豊かな自然環境が維持されており、大沼、トンビ岩、三蛇ヶ滝などの景勝地も多いことから、登山やハイキングの利用者でにぎわいます。ハイキングコースは、見上峠から白兀山まで全長約8キロの変化に富んだ本格的なコースで、薬草の山として知られる医王山への石川県側からのコースです。戸室山およびキゴ山周辺には、医王山スポーツセンター、金沢ふれあいの里、医王山スキー場などの施設が集積しています。,,"金沢駅から約70分(約25km)北陸自動車道金沢東ICから約70分(約25km),",有り,,,,,,,,,,,,,,,,,,医王山ビジターセンター,076-236-1165,,,,,,,,,,
170003,,JJ0000000070,石川県,医王山スキー場,イオウゼンスキージョウ,iozensukijo,,172014,,石川県金沢市俵町テ甲21,石川県,金沢市,俵町テ甲,21,,36.526417,136.752558,,,,12月下旬から3月上旬まで（積雪による）午前8時30分～午後4時30分※天候によって短縮する場合があります。,,,"一回券100円、午前券(～13:00)830円、午後券(12:00～)830円、1日券1,570円、回数券(11回分)1,000円",,"新型コロナウイルス感染防止のため、「リフト券売り場」、「リフト乗車待ち」、「リフト乗車時」、「休憩所利用時」などは、「マスク等で口を覆う」などのご協力をお願いいたします。滑走中、ソリ遊び、雪遊び、ゲレンデ外での休憩等であっても周囲に人がいる時は上記と同様「マスク等で口を覆う」などをお願いいたします。金沢市内から車で30分程でアクセスできる、好立地のスキー場です。ダイナミックコースからファミリーゲレンデ、そしてクロスカントリー気分で楽しめる人気の林道コースなど、初心者から上級者まで楽しむことができます。スキー場上部からは、加賀白山から能登半島まで見渡すことができ、眺望も抜群！隣接するキゴ山ビジターハウスで休憩することもできます。ぜひ、お越しください。その他のスキー場の情報をまとめた特集はこちら！！＞＞<a href=""https://www.hot-ishikawa.jp/feature/top/skii"">石川県のスキー場特集！</a>",,"北陸自動車金沢東ICから約30分(約20Km)金沢駅から約35分(約16km),",500台（無料）,,,,,,,,,,,,,,,,,,,076-229-1947,,,,,,,,https://www.kanazawa-sports.jp/use/search/546/,,
170003,,JJ0000000071,石川県,池田大仏堂,イケダダイブツドウ,ikedadaibutsudo,,172014,,石川県金沢市安江町5-7　,石川県,金沢市,安江町,5-7　,,36.575577,136.655897,,,,10時00分～17時00分,,,,,　創業嘉永三年。国指定伝統的工芸品。金沢仏壇の製造販売をしています。現代のニーズにあった仏壇も展示。香屋:金沢市武蔵町10-1　TEL.076-260-1139,,",ふらっとバス此花ルート　東別院表参道口下車　徒歩1分",あり,,,,,,,,,,,,,,,,,,,076-222-5550,,,,,,,,http://www.ikedadaibutudo.com/,,
170003,,JJ0000000072,石川県,浅の川温泉 湯楽,アサノガワオンセン ユラク,asanogawaonsen yuraku,,172014,,石川県金沢市東町ロ80,石川県,金沢市,東町ロ,80,,36.492226,136.7604833,,,,8時00分～22時00分,,,,,　街中の雑踏を離れ、癒やしとくつろぎのひとときをどうぞ。医王の湯・戸室の湯、2つ合わせて毎分1200リットルで52℃、100％天然純生の湯です。掛け湯にはアルカリイオン水を使用し、お肌がつるつるになります。露天風呂に合わせて、浴室までバリアフリーとなっています。　泉質：ナトリウム、カルシウム、塩化物、硫酸塩泉、（弱アルカリ性低張性高温泉）　効能：神経痛、関節痛、慢性消化器病、傷、火傷、あせも、慢性皮膚病、動脈硬化症、慢性婦人病、肥満症、糖尿病、痛風、胆嚢炎、冷え症など,,"金沢中心部から車で20分,湯涌温泉行きバスにて芝原下車徒歩15分",200台,,,,,,,,,,,,,,,,,,,076-235-1126,,,,,,,,http://www.yuraku-onsen.jp,,
170003,,JJ0000000073,石川県,浅野川大橋,アサノガワオオハシ,asanogawaohashi,,172014,,石川県金沢市橋場町、主計町～東山,石川県,金沢市,橋場町、主計町～東山,,,36.572057,136.664433,,,,,,,,,　藩政時代からの交通の要所にあり、現在は国道157号上、浅野川に架かる橋です。橋は、1922（大正11）年の建設で橋長55メートル、幅員17メートル、鉄筋コンクリート造3連充腹（じゅうふく＝アーチと路面の間に材料が隙間なく敷き詰められていること）のアーチ橋です。スパンドレル部分をドイツ壁風に、アーチ環を目地付きコンクリート洗い出し仕上げとし、橋脚の水切部分には花崗岩を用いています。,,"金沢駅から車で約10分(約2Km)北陸自動車金沢東ICから約15分(約4Km),「橋場町」バス停から徒歩1分",付近に東山観光駐車場、東山北観光駐車場、東山河畔観光駐車場有り,,,,,,,,,,,,,,,,,,金沢市文化財保護課,076-220-2469,,,,,,,,,,
170003,,JJ0000000074,石川県,足軽資料館,アシガルシリョウカン,ashigarushiryokan,,172014,,石川県金沢市長町1-9-3,石川県,金沢市,長町,1-9-3,,36.565913,136.649848,,,,9時30分～17時00分,,,入館無料,,　藩政時代の貴重な足軽屋敷2棟を移築再現したものです。建物の中では、足軽の職務や日常生活の解説・展示がなされています。屋根は、昔ながらの石を置いたもので、当時の雰囲気を醸し出しています。,,",「香林坊」バス停下車徒歩5分",無し（近隣に長町観光駐車場有り）,,,,,,,,,,,,,,,,,,,076-263-3640,,,,,,,,,,
170003,,JJ0000000075,石川県,あめの俵屋,アメノタワラヤ,amenotawaraya,,172014,,石川県金沢市小橋町2－4,石川県,金沢市,小橋町,2－4,,36.576687,136.662081,,,,月曜日～土曜日：9：00～17：30日曜日：9：00～17：00,,,（利用可能クレジットカード：VISA、JCB）,,　1830（天保元）年創業のあめ屋です。初代次右衛門が、乳飲み子を抱えながらも母乳が出ず、困り果てていた母親たちの姿を見て、何とか母乳の代わりになる栄養価の高い食品はないかと考えた末に作り上げたのが、「俵屋のあめ」のはじめといわれています。,,",JR金沢駅より「ふらっとバス（此花ルート）」小橋下車、徒歩2分",6台（専用駐車場完備）,,,,,,,,,,,,,,,,,,,076-252-2079,,,,,,,,http://www.ame-tawaraya.co.jp/,,
170003,,JJ0000000076,石川県,雨の宮グリーン広場,アメノミヤグリーンヒロバ,amenomiyagurinhiroba,,174076,,石川県鹿島郡中能登町西馬場,石川県,中能登町,石川県鹿島郡中能登町西馬場,,,36.976093,136.871416,,,,バーベキュー施設9時30分～17時30分,,,,,西馬場地内の雨の宮古墳群に隣接する、山林の中にある憩いの広場です。わんぱく広場（芝生）には、スーパースライダーとコンビネーション遊具が設置されており、子どもに人気です。バーベキューセットが3基、水飲み場も整備されているバーベキュー広場は、夏ににぎわいます。林の中を散策できる「小鳥の道」には、展望台1基が設置されているほか、休憩所と水洗トイレがあります。,,",JR能登部駅から徒歩60分JR能登部駅より能登西部バス高浜行きで徳丸峠バス停から徒歩20分",あり,,,,,,,,,,,,,,,,,,,0767-76-2808,,,,,,,,,,
170003,,JJ0000000077,石川県,雨の宮古墳群,アメノミヤコフングン,amenomiyakofungun,,174076,,石川県鹿島郡中能登町西馬場,石川県,中能登町,石川県鹿島郡中能登町西馬場,,,36.9762164,136.8721858,,,,,,,無料,,　雨の宮古墳群は、眉丈山（標高188メートル）の山頂を中心に、4世紀の中頃から5世紀の初めにかけて造られた36基の古墳から成っています。　最も高い場所にある通称「雷ヶ峰」に位置する1号墳は、墳丘の長さが64メートルの前方後方墳で、県内最大規模を誇っています。墳丘は2段に築かれており、斜面は葺石（ふきいし）に覆われています。　2号墳は、1号墳の北東に向き合って立地している墳丘の長さが約65メートルの前方後円墳です。1号墳と同じ構造をしています。　これら2つの古墳に埋葬されている人物は、古墳の規模や副葬品の内容などから考えて、いずれも能登全体に支配権を持つ権力者であったと推測されます。　古墳時代のこの地域の歴史を考える上で、雨の宮古墳群は、邑知地溝帯を挟んで対峙している小田中親王塚、亀塚の両古墳と共に、欠くことのできない重要な文化財です。1982（昭和57）年10月12日、国史跡に指定されました。　中能登町では、この古墳群を永く保存し活用していくため、1992（平成4）年から5カ年にわたり発掘調査を実施しました。94年から文化庁の「史跡等活用特別事業」により、古墳が造られた当時の姿に復原しました。,,",JR能登部駅から徒歩約60分",あり,,,,,,,,,,,,,,,,,,雨の宮能登王墓の館,0767-72-2202,,,,,,,,https://www.town.nakanoto.ishikawa.jp/life_service_local/3/3/1974.html,,
170003,,JJ0000000078,石川県,雨の宮能登王墓の館,アメノミヤノトオウボノヤカタ,amenomiyanotoubonoyakata,,174076,,石川県鹿島郡中能登町西馬場7部12番地,石川県,中能登町,石川県鹿島郡中能登町西馬場,7部12番地,,36.977145,136.871897,,,,9時00分～17時00分（入館は、16時30分まで）4月から11月まで開館,,,大人　個人200円、団体（20人以上）160円　小人（小、中、高校生）　個人100円、団体（20人以上）無料,,雨の宮古墳群に埋葬されていた出土品を展示しています。・展示品　雨の宮1号墳出土品・・・銅鏡、石製腕飾類、刀剣類、その他　雨の宮1号墳埋葬施設・・・粘土槨（かく）の実物大模型　雨の宮古墳群の紹介パネル・映像ガイダンスロビー,,",タクシー JR能登部駅より約15分徒歩　JR能登部駅より約60分",40台,,,,,,,,,,,,,,,,,,,0767-72-2202,,,,,,,,https://www.town.nakanoto.ishikawa.jp/tourist_navi/kanko_spot/3434.html,,
170003,,JJ0000000079,石川県,岩倉寺,イワクラジ,iwakuraji,,172049,,石川県輪島市町野町西時国16-8,石川県,輪島市,町野町西時国,16-8,,37.455459,137.081541,,,,,,,,,飛鳥時代、孝徳天皇の祈願所として開かれた古刹です。北陸三十三カ所観音霊場第16番のお寺となります。1300年前に海中で発見されたと伝わる千手観音像を本尊として祭り、大漁祈願の寺としてあがめられています。本尊は、33年ごとに開帳される秘仏ですが、17年ごとに半開帳（まがいちょう）も行われています。直近では、2006（平成18）年に半開帳されました。,,"輪島市街から車で25分,「曽々木口」バス停から徒歩20分",,,,,,,,,,,,,,,,,,,,0768-32-0139,,,,,,,,https://wajimanavi.jp/tourism/portfolio/iwakura/,,
170003,,JJ0000000080,石川県,岩倉城址遊歩道,イワクラジョウシユウホドウ,iwakurajoshiyuhodo,,172031,,石川県小松市原町,石川県,小松市,原町,,,,,,,,,,,,,　城は上麦口町の北東の標高296メートルの山頂に築かれていました。岩倉城は、一向宗門徒が、越前の戦国大名朝倉氏の加賀領内への侵入を阻止するために築いたものです。　山頂にある岩倉城は、滓上川流域の城塞群の中でも織田軍の特徴を残している唯一の中世山城です。　緑豊かな森は、バードウォッチングや森林浴に最適です。城址周辺はウオーキングの疲れを癒やすには十分な広場です。（起終点・経路:小松市・登山口～おうめ地蔵～米左エ門屋敷跡広場～山頂岩倉城址） ,,",JR小松駅からバスで25分",あり,,,,,,,,,,,,,,,,,,小松市観光文化課,0761-24-8076,,,,,,,,,,
170003,,JJ0000000081,石川県,岩倉山,イワクラヤマ,iwakurayama,,172049,,石川県輪島市町野町曽々木,石川県,輪島市,町野町曽々木,,,37.456004,137.085275,,,,,,,,,曽々木海岸にかぶさるようにそびえる山です。山頂まで遊歩道が続いており、千体地蔵と呼ばれる奇岩を見ることができます。,,"・輪島市街から国道249号線で珠洲方面へ約25分,・「曽々木口」バス停から徒歩約1時間30分",ふるさと体験実習館に有り　50台,,,,,,,,,,,,,,,,,,曽々木観光協会（またはふるさと体験実習館0768-32-1331）,0768-32-0408,,,,,,,,http://noto-sosogi.com/,,
170003,,JJ0000000082,石川県,岩間の噴泉塔群,イワマノフンセントウグン,iwamanofunsentogun,,172103,,石川県白山市尾添,石川県,白山市,尾添,,,36.22861823,136.7702584,,,,,,,,,　国指定特別天然記念物です。摂氏100℃近い温泉の噴出によって、含有される石灰が沈殿してできる石灰華（せっかいか）が、塔状になったものです。白と緑のコントラストは、自然の偉大さを痛感させるほどに鮮やかです。　周辺では、現在も温泉は噴出していますが、大雨や雪崩などの自然災害で被害を受けており、自己修復が待たれています。,,"白山ICから国道157号線を南へ80分金沢駅から90分、松任駅から80分、美川駅から80分、鶴来駅から60分※表記の交通アクセスは、岩間温泉までの所要時間になります。噴泉塔へは、岩間温泉から徒歩になります（往復で約3時間半）。,",岩間温泉　駐車場,,,,,,,,,,,,,,,,,,,076-274-9579,,,,,,,,,,
170003,,JJ0000000083,石川県,岩本清商店,イワモトキヨシショウテン,iwamotokiyoshishoten,,172014,,石川県金沢市瓢箪町3-2,石川県,金沢市,瓢箪町,3-2,,,,,,,10時00分～18時30分,,,無料（要予約）,,創業1913年、石川県指定伝統工芸品である金沢桐工芸を製造・販売する。桐の木を焼き、美しい木目の浮かぶ焼き肌に、盛り上げて描く錆上げ蒔絵を施す。ろくろで挽いてつくる伝統の火鉢のほか、お茶やお酒にぴったりのちょこっとトレーや金沢のあたらしい郷土玩具「てるてる」、その他、お盆や茶托、屏風に花生けなど、さまざまな品を制作している。時間によっては、古いこうばを見学することもできる。,,",JR金沢駅から徒歩15分城下町かなざわ周遊バス 明成小学校前下車30秒",,,,,,,,,,,,,,,,,,,,076-231-5421,,,,,,,,http://www.kirikougei.com,,
170003,,JJ0000000084,石川県,浮御堂,ウキミドウ,ukimido,,172065,,石川県加賀市片山津温泉　柴山潟水面内,石川県,加賀市,片山津温泉　柴山潟水面内,,,36.3476757,136.3676027,,,,,,,,,霊峰白山の全景を映し出す柴山潟に浮かぶ御堂です。「うきうき弁天」という愛称もあります。柴山潟から源泉が発見され、片山津は北陸屈指の温泉街へと発展しました。湖にある浮御堂と弁天竜神像は、人々の感謝の証として建てられたものです。湯の元公園から浮棧橋で浮御堂まで歩いていくことができます。また、柴山潟の沖合400メートルの湖上には、70メートルの高さに噴き上がる大噴水があり、夜は浮御堂と共にライトアップされます。,,"北陸自動車道　片山津ICから約4.1km,JR加賀温泉駅から加賀温泉バス温泉片山津線で約10分、片山津温泉総湯バス停から約200ｍJR加賀温泉駅から加賀周遊バス キャン・バス海まわり又はキャン・バス小松空港線　11片山津温泉・湯の元公園バス停から約200m",片山津温泉地区会館無料駐車場,,,,,,,,,,,,,,,,,,片山津温泉観光協会,0761-74-1123,,,,,,,,,,
170003,,JJ0000000085,石川県,御菓子城加賀藩（休館中）,オカシジョウカガハン,okashijokagahan,,172065,,石川県加賀市加茂町ハ90-1,石川県,加賀市,加茂町ハ,90-1,,36.308412,136.36408,,,,8時15分～17時00分,,,無料（一部有料施設あり）,,風雅な日本庭園に囲まれた広大な敷地に見る。味わう。体験する。加賀百万石の伝統文化。創業以来の名物「加賀福」をはじめ、豊富な数の銘菓や石川の地酒など多彩に取り揃えています。また、日本折紙博物館など充実した見学施設もお楽しみください。※新型コロナウイルス感染症拡大防止のため当面の間、休業しています。営業再開については施設にお問い合わせください。,,"加賀温泉駅よりタクシーで約5分北陸自動車道加賀I.C.より車で約10分,",有り、普通車350台バス30台,,,,,,,,,,,,,,,,,,御菓子城加賀藩文化村,0761-77-0100,,,,,,,,,,
170003,,JJ0000000086,石川県,金沢21世紀美術館,カナザワ21セイキビジュツカン,kanazawa21seikibijutsukan,,172014,,石川県金沢市広坂1丁目2-1,石川県,金沢市,広坂,1丁目2-1,,36.56087512,136.6581573,,,,展覧会ゾーン：10時00分～18時00分（金・土曜日は20時まで）交流ゾーン：9時00分～22時00分,,,美術館の建物への入館（交流ゾーン）は無料です。展覧会ゾーンへの入場は展覧会観覧券（有料）が必要です。なお、市民ギャラリー等で開催されている一般主催展覧会の観覧券は、各会場入口でお買い求めください。（展覧会の観覧料は内容や時期により異なる）利用可能クレジットカード：JCB、マスター、VISA、交通系IC、QUICPay、iD、Edy、WAON、nanaco,,誰もがいつでも立ち寄れ、様々な出会いの「場」となることを目指した現代アートの美術館。「現代アート」と聞いて少し小難しいものを想像する人もいるかもしれません。でも、ここでは、レアンドロ・エルリッヒ作の《スイミング・プール》(通称:レアンドロのプール)をはじめ、実際に見て、触れて、感じることができる作品も多いので「公園」に遊びに来たような感覚で楽しめます。フラッと立ち寄って作品を鑑賞しても、じっくりと作品を鑑賞しても、人それぞれの作品鑑賞スタイルを受け入れてくれる美術館がここにあります。,,"金沢駅から約10分(約2km),JR金沢駅より兼六園口（東口）バスターミナル3，7番バスにて「広坂・21世紀美術館」下車すぐ8～10番バスにて「香林坊（アトリオ前）」下車、徒歩5分",有り（有料）,,,,,,,,,,,,,,,,,,,076-220-2800,,,,,,,,http://www.kanazawa21.jp/,,
170003,,JJ0000000087,石川県,憩いの森,イコイノモリ,ikoinomori,,172031,,石川県小松市吉竹町へ302,石川県,小松市,吉竹町へ,302,,36.3859493,136.4841302,,,,,,,無料※バーベキュー施設は要予約利用可能クレジットカード　なし,,　野鳥が集う里山の森で、自然を満喫できます。　美しく整備された広大な森。樹木を水面に映す静かな堤には全長100メートルもの木橋が架けられ、家族そろっての森林浴などに最適の環境が整っています。　この自然を求めて飛来する野鳥の数は、100種類以上を数え、バードウオッチングに最適です。　また白山麓から移築した古い民家や珍しい炭焼小屋、薬草園もあり、季節ごとの美しい山野草、ミズバショウ、カキツバタ、モミジなどの植物を観察できます。　ゆったりとした一日を過ごすことができる場所です。,,"北陸自動車道小松ICから車で20分JR小松駅から車で10分,",200台,,,,,,,,,,,,,,,,,,,0761-24-4558,,,,,,,,https://www.city.komatsu.lg.jp/soshiki/nourinsuisan/kanrenshisetsu/2548.html,,
170003,,JJ0000000088,石川県,石浦神社,イシウラジンジャ,ishiurajinja,,172014,,石川県金沢市本多町3-1-30,石川県,金沢市,本多町,3-1-30,,36.5612,136.659819,,,,9時～17時,,,,,古墳時代に草創された、金沢最古のお宮です。縁結びにご利益のあるパワースポットとして女性の方に人気があります。水玉のお守りや、朱印帳が人気で、古墳時代に草創された金沢最古の宮としてロマンあふれる素敵な神社です。 令和元年には百一基の朱塗りの鳥居が連なる参道が建立され、「101鳥居」と名付けられました。落成前から記念写真を撮る観光客が絶えなかったという、新たなシンボルです。,,",金沢駅東口３・６番乗り場すべてのバス（快速を除く）に乗車→約15分→「広坂・21世紀美術館」下車　徒歩3分",,,,,,,,,,,,,,,,,,,,076-231-3314,,,,,,,,http://www.ishiura.jp/,,
170003,,JJ0000000089,石川県,石川県海洋漁業科学館　,イシカワケンカイヨウギョギョウカガクカン,ishikawakenkaiyogyogyokagakukan,,174637,,石川県鳳珠郡能登町字宇出津新港3-7,石川県,能登町,石川県鳳珠郡能登町字宇出津新港,3-7,,37.296838,137.148554,,,,9時30分～16時30分（入館は16時00分まで）,,,入館料無料,,海と魚の知識や、石川県の水産業の現況を紹介する施設です。海などに関する日頃の疑問を、楽しみながら学習して解決できます。「いかとっくり工作」や「ガラス玉編み込み工作」などの体験学習も充実しています。水産業の試験研究を行っている石川県水産総合センターも見学できます。,,"のと里山海道能登空港ICより車で30分,JR七尾線及びのと鉄道を乗り継ぎ穴水駅で下車。路線バス「能登高校南」または「辺田の浜」下車",３0台分あり（無料）,,,,,,,,,,,,,,,,,,,0768-62-4655,,,,,,,,https://www.pref.ishikawa.lg.jp/suisan/center/kagakukan/toppage.html,,
170003,,JJ0000000090,石川県,石川県金沢港大野からくり記念館,イシカワケンカナザワコウオオノカラクリキネンカン,ishikawakenkanazawakoonokarakurikinenkan,,172014,,石川県金沢市大野町4丁目甲2－29,石川県,金沢市,大野町,4丁目甲2－29,,36.61917322,136.6043383,,,,9時00分～17時00分（入館は16時30分まで）,,,≪見学≫大人300円小中高生200円団体20名以上50円引※障がい者割引　100円引,,触って遊べる　からくり体験ミュージアム金沢港の先端に位置し、日本海に突き出すように建つ大野からくり記念館は、金沢市大野町に住み活躍した幕末の科学技術者・からくり師 大野弁吉の業績を紹介するとともに、近代技術のあけぼのを代表する「からくり」の世界を様々に展示しています。実際に触って遊び、「からくり」を体感してください。また、北前船をイメージした内井昭蔵氏設計の建物もぜひご覧ください。,,"JR金沢駅よりタクシーで15分、北陸自動車道金沢西ICまたは金沢東ICより20分,中橋バス停(金沢駅から徒歩10分、JR高架下)より北鉄バス「大野」または「大野港」行きのバスに乗車、終点下車、徒歩15分",20台専用駐車場完備,,,,,,,,,,,,,,,,,,,076-266-1311,,,,,,,,http://www.ohno-karakuri.jp,,
170003,,JJ0000000091,石川県,石川県観光物産館,イシカワケンカンコウブッサンカン,ishikawakenkankobussankan,,172014,,石川県金沢市兼六町2-20,石川県,金沢市,兼六町,2-20,,36.564957,136.663229,,,,営業時間  10：00～17：30　※コロナ感染状況により営業時間を変更する場合があります。,,,"≪体験≫和菓子手づくり体験：1,500円（令和5年4月より 1,700円）砂彫りガラス体験：1,880円～（材料費込）加賀八幡起上り手描き体験：1,050円（材料費込、サイズ：高さ6.5cm 横5.5cm）（令和5年4月より 1,200円）金箔貼り体験：1,050円～　（令和5年4月より 1,250円～ ）小さな締太鼓づくり：小(直径3.5cm) 610円（令和5年4月より 650円）　　　　　　　　　　大(直径4.3cm) 710円（令和5年4月より 750円）お抹茶の自服体験：700円(お菓子付き)※体験料はすべて（10％）税込表示です。※クレジットカードは使用できません。",,※まん延防止重点措置期間中は時短営業となります※コロナ感染状況等により営業時間を変更する場合があります日本三名園のひとつ「兼六園」のそばにあり、石川・金沢の老舗有名店の和菓子・地酒・海産物や伝統工芸品などが集まる商業施設です。お土産や贈り物・ギフトに人気の品々がそろっています。館内では、和菓子職人の指導によりお茶席の主菓子をつくる「和菓子手づくり体験」、砂を高圧のエアーでガラスに吹き付け文字を彫る「砂彫りガラス体験」、縁起の良い起上りに絵付けをする「加賀八幡起上り手描き体験」、小箱、コンパクトミラーなどに金箔のデザインフィルムを貼りオリジナル作品が作れる「金箔貼り体験」、本皮と木を利用して「小さな締太鼓づくり」や自分で茶せんを使ってお茶を点てる「お抹茶の自服体験」の6つの体験ができます。旅の記念にぜひチャレンジしてみませんか。体験イベントの詳細については、石川県観光物産館の公式ウェブサイトをご覧ください。,,"北陸自動車道金沢東ICおよび金沢西ICより車で約20分,JR金沢駅より北鉄バスで兼六園下・金沢城バス停下車、徒歩約1分",石川県兼六駐車場をご利用してください。,,,,,,,,,,,,,,,,,,,076-222-7788,,,,,,,,http://kanazawa-kankou.jp/,,
170003,,JJ0000000092,石川県,石川県九谷陶磁器商工業協同組合連合会,イシカワケンクタニトウジキショウコウギョウキョウドウクミアイレンゴウカイ,ishikawakenkutanitojikishokogyokyodokumiairengokai,,172111,,石川県能美市泉台町南13番地,石川県,能美市,泉台町南,13番地,,36.436598,136.496579,,,,9時00分～17時00分,,,無料,,当連合会は九谷焼業界全体を統括する組織です。350年以上の歴史に培われた九谷焼の文化を継承しつつ、現代にふさわしい新しい技術の深化、発展を目指しております。2009年度に展示場を整備し、九谷焼伝統工芸士会・石川県陶芸協会の会員の方々の作品、各組合員の商品の展示を行っています。オリジナル作品ばかりですので、是非お立ち寄り下さい。,,"小松空港から車で約20分JR能美根上駅から車で約10分,",有,,,,,,,,,,,,,,,,,,,0761-57-0125,,,,,,,,,,
170003,,JJ0000000093,石川県,石川県九谷焼美術館,イシカワケンクタニヤキビジュツカン,ishikawakenkutaniyakibijutsukan,,172065,,石川県加賀市大聖寺地方町1-10-13,石川県,加賀市,大聖寺地方町,1-10-13,,36.302818,136.310206,,,,9時00分～17時00分（入館は16時30分まで）,,,一般 560円、団体（20名様以上） 460円、75歳以上 280円高校生以下無料、障がいのある方は手帳呈示で無料（付添１名も無料）,,石川県九谷焼美術館は、白山を望む加賀平野の南端にあります。青手の間、色絵五彩の間、赤絵金襴の間等、雰囲気の異なった展示空間を持ち、江戸時代初期の彩色磁器「古九谷」をはじめとして、およそ360年にわたる九谷焼の名品を展示しております。古九谷の杜親水公園から、館内のミニ庭園まで、一貫性を持たせて庭園美術館として楽しむことができます。展示入替のため臨時休館日があります。ご注意ください,,"北陸自動車道　加賀ICから約3.1km,JR加賀温泉駅から加賀周遊バス　キャンバス加賀越前線　→　32 山ノ下寺院群・石川県九谷焼美術館バス停から約100m（1日３便）JR加賀温泉駅から普通列車で4分（福井方面へ1駅）　→　JR大聖寺駅から約550m",乗用車約20台、大型バス1台,,,,,,,,,,,,,,,,,,,0761-72-7466,,,,,,,,http://www.kutani-mus.jp/,,
170003,,JJ0000000094,石川県,石川県健康の森　,イシカワケンケンコウノモリ,ishikawakenkenkonomori,,172049,,石川県輪島市三井町健康の森,石川県,輪島市,三井町健康の森,,,37.297391,136.928848,,,,8:30～17:00※キャンプ場は4/1～11/30の期間営業,,,"・テントサイト　1区画　640円・ログハウス　1棟（4人用）　12,810円・ログハウス　1棟（7人用）　16,010円　・ログハウス　1棟（10人用） 19,380円　",,　自然いっぱいの広々とした敷地内にある総合交流センターは、健康の森の総合案内や休憩スペースとしての利用ができ、地域の特産品も販売しています。能登地域のグリーンツーリズムの情報発信を目的とした施設です。また、森や自然とのふれあいと併せて、各種の体験教室を開いています。　夏は、15サイトあるオートキャンプ場が人気です。バンガローが6棟（室内の面積が14.3平方メートル）、ログハウスは10棟あります。バーベキュー用の木炭を販売しており、網や鉄板の貸し出し（有料）も行っています。　木々に囲まれた森林科学館は、県木の「アテ（ヒノキ科アスナロ属アスナロ）」材をふんだんに使った、森林や林業をさまざまな角度から学べる学習施設です。館内は、ヒノキに似た独特の落ち着く香りが漂っています。また、世界各国の昆虫や石川県内自生するキノコも展示しています。　洲衛釜（すえがま）の里内にある和紙体験館では、コウゾやスギの皮をはじめ、タケの葉、草花、海草を原料とした、独特の色合いを持つ能登和紙の紙すき工程を見学、体験できます。木材を野外の炭焼き窯で焼きあげることもできる木炭体験館も同ハウス内にあり、和紙や木炭の展示、販売コーナーを設けています。,,"のと里山海道「のと里山空港IC」から10分,",100台収容　大型バス可,,,,,,,,,,,,,,,,,,,0768-26-1413,,,,,,,,http://www.ken-mori.com/,,
170003,,JJ0000000095,石川県,石川県工業試験場,イシカワケンコウギョウシケンジョウ,ishikawakenkogyoshikenjo,,172014,,石川県金沢市鞍月2丁目1番地,石川県,金沢市,鞍月,2丁目1番地,,36.59420263,136.6202584,,,,8:30～17:45≪見学可能時間帯≫9時00分～16時00分,,,≪見学≫無料,,石川県工業試験場は、「県内の中小企業のための試験室・実験室」として、機械・金属、電子・情報、繊維、特産、化学・食品の各産業分野について、製品等の試験・分析や、新技術の研究開発を実施しています。高度な試験・分析施設やものづくりのための試作加工施設を設置しており、これらの機器を見学できます。,,"金沢駅から車で10分北陸自動車道金沢西ICより10分,JR金沢駅から北鉄バス「工業試験場」行きに乗車、終点下車",有り,,,,,,,,,,,,,,,,,,,076-267-8081,,,,,,,,http://www.irii.jp/,,
170003,,JJ0000000096,石川県,石川県湖南運動公園　,イシカワケンコナンウンドウコウエン,ishikawakenkonanundokoen,,172014,,石川県金沢市八田町西1（金沢競馬場隣接）,石川県,金沢市,八田町西,1（金沢競馬場隣接）,,36.6323632,136.6747374,,,,,,,,,金沢競馬場の中にあり、芝生の公園になっています。遊具もあって日曜・祝日はポニーにも乗れます。競馬場が近いため、走っている馬を見ることもできます。近隣には野球場、サッカー場、アーチェリー場、厩舎などがあります。,,",湖南運動公園バス停すぐ",駐車場有り。約200台可能（アスファルト舗装）,,,,,,,,,,,,,,,,,,,076-258-5725,,,,,,,,http://www.pref.ishikawa.lg.jp/nousan/konan/konan.html,,
170003,,JJ0000000097,石川県,石川県小松市團十郎芸術劇場うらら,イシカワケンコマツシダンジュウウロウゲイジュツゲキジョウウララ,ishikawakenkomatsushidanjuurogeijutsugekijourara,,172031,,石川県小松市土居原町710番地,石川県,小松市,土居原町,710番地,,36.403181,136.452187,,,,9時～18時30分(ただし、催事がある場合はこの限りではありません)※2022年10月1日から営業時間が変更しました。≪見学≫9時30分～16時30分,,,≪見学≫無料,,歌舞伎から現代劇や音楽まで、多彩な芸能や芸術舞台を堪能できる劇場です。大ホールは歌舞伎を主目的としたホールで、市の木である松の葉をアレンジしたパネルの壁面や伝統工芸を取り入れた格子など、和風の要素をアクセントとしています。小ホールは優れた音響性能を有しており、室内楽やリサイタルに適した最高の空間です。曲線の多用や、内観の透明感のあるガラスの壁面により現代的なデザインとし、「新しい小松」をイメージさせるインテリアとなっています。 また、市民ギャラリー・催事場・小松駅前行政サービスセンターも入っており、多目的に利用できます。※2023年3月4日に「石川県小松市團十郎芸術劇場うらら」へ名称を変更しました。,,"北陸道自動車道小松ICから車で10分小松空港から小松駅行バスで12分,JR小松駅から徒歩3分",小松駅周辺の市営駐車場または有料駐車場をご利用ください。,,,,,,,,,,,,,,,,,,,0761-20-5500,,,,,,,,http://www.komatsu-urara.com/,,
170003,,JJ0000000098,石川県,石川県森林公園,イシカワケンシンリンコウエン,ishikawakenshinrinkoen,,173614,,石川県河北郡津幡町字津幡エ-14,石川県,津幡町,石川県河北郡津幡町字津幡エ-,14,,36.689758,136.749652,,,,開園時間、定休日は石川県森林公園ホームページをご参照ください。,,,無料（ただし施設により有料あり）（利用可能クレジットカード：無し）,,　東京ドームの約246倍の広さを誇る石川県森林公園では、四季折々の変化に富んだ里山の自然を楽しむことができます。ボート乗り場や動物園がある「家族団らんの森」、植物園がある「学習の森」、バードウォッチングに最適な「散策の森」、アスレチックやテニスなどができる「スポーツの森」、キャンプやバーベキュー広場がある「たんれんの森」の5つの森で構成されています。バラエティに富んだ園内は子どもから大人まで幅広い年齢の人が楽しめるのでファミリーにもおすすめです。　「インフォメーションセンター」では鳥や昆虫などの生態を学ぶことができます。レンタサイクルは広大な園内を巡るのに便利。公園の景色を眺めながら食事ができる「森のレストラン」もあります。　「森林動物園」では里山に生息するシカやサル、タヌキなどが飼育されており、かわいい姿に思わずにっこりしてしまうかも。　石川県森林公園は科学的に「癒し」効果が実証された「森林セラピー基地」として石川県で初めて認定されました。園内には、歩きやすく景観に優れた5本の「森林セラピーロード」があるので散策し、ぜひその効果を実感してください。,,"JR本津幡駅から車で約5分金沢東ICから車で約20分,金沢駅よりJR七尾線で中津幡駅下車、徒歩35分金沢駅よりJR七尾線又はIRいしかわ鉄道線で津幡駅下車、津幡駅より津幡町営バス緑が丘線にて「森林公園南口」下車※「森林公園南口」バス停は、冬期間（12月～3月）運休しますのでご注意ください。",無料,,,,,,,,,,,,,,,,,,インフォメーションセンター,076-288-6449,,,,,,,,http://www.shinrinpark-ishikawa.jp/,,
170003,,JJ0000000099,石川県,石川県地場産業振興センター,イシカワケンジバサンギョウシンコウセンター,ishikawakenjibasangyoshinkosenta,,172014,,石川県金沢市鞍月2丁目1番地,石川県,金沢市,鞍月,2丁目1番地,,36.5944663,136.6215007,,,,利用時間：9時00分～21時00分,,,,,産業振興ゾーンの中核的施設として、産・学・官の交流、中小企業等経営情報の提供、人材養成のための研修会、商品等の展示会及び商談会の場としての機能を持っています。【施設概要】本館：多目的ホール（800人収容）、会議室、研修室、商談ホール、展示コーナーなど。新館:国際会議に備えたコンベンションホール等が整備されています。,,"金沢駅西口から約10分			,金沢駅西口よりバス約20分「工業試験場」または「消費生活支援センター」行きに乗車、「工業試験場」下車",800台（無料）,,,,,,,,,,,,,,,,,,,076-268-2010,,,,,,,,http://www.isico.or.jp/jibasan/index,,
170003,,JJ0000000100,石川県,石川県政記念しいのき迎賓館　,イシカワケンセイキネンシイノキゲイヒンカン,ishikawakenseikinenshiinokigeihinkan,,172014,,石川県金沢市広坂2丁目1番1号,石川県,金沢市,広坂,2丁目1番1号,,36.562407,136.65782,,,,9時00分～22時00分--入居施設--カフェ＆ブラッスリー ポール・ボキューズ・営業時間/11:00～20:00・休業日/11月～3月（冬期）の月曜定休、年末年始・TEL：076-261-1162ジャルダン ポール・ボキューズ・営業時間/11時30分～15時00分、18時00分～22時00分・休業日/月曜、年末年始・TEL：076-261-1161セレクトショップGIO・営業時間/10時00分～18時00分・休業日/月曜、年末年始・TEL：076-261-1114大学コンソーシアム石川・窓口/9:00～17:45・休業日/日曜・祝日、年末年始・TEL：076-223-1633国連大学サスティナビリティ高等研究所（UNU-IAS）・休業日/土曜・日曜・TEL：076-224-2266,,,無料（ギャラリー等では有料展示を行うこともあります。）,,しいのき迎賓館は、大正時代に建てられた“旧県庁舎”を大胆にリニューアルし、背面に金沢城の石垣を眺めるガラス張りの空間を重ね合わせた建物です。「第１７回いしかわ景観大賞」も受賞しています。館内には、兼六園周辺の総合案内やギャラリーのほか、旧知事室を改装したフレンチレストランやカフェなどがあります。また、夜にライトアップする石垣を眺めるには絶好のスポットとなります。周辺の観光・イベント情報の収集、観光や散策の途中でのご休憩やお食事など、お気軽にお越しください。,,"北陸自動車金沢西ICより車で約20分、または北陸自動車金沢東ICより車で約20分,JR金沢駅バスターミナルよりバスにて「香林坊（アトリオ前）」下車（所要約10分）、徒歩約5分",95台(有料),,,,,,,,,,,,,,,,,,,076-261-1111,,,,,,,,http://www.shiinoki-geihinkan.jp/,,
170003,,JJ0000000101,石川県,石川県銭屋五兵衛記念館・銭五の館,イシカワケンゼニヤゴヘイキネンカン・ゼニゴノヤカタ,ishikawakenzeniyagoheikinenkan・zenigonoyakata,,172014,,石川県金沢市金石本町ロ55（銭五の館:普正寺町参字85-1）,石川県,金沢市,金石本町ロ,55（銭五の館:普正寺町参字85-1）,,36.59693265,136.5970938,,,,9時00分～17時00分（入館は16時30分まで）「銭五の館」は10時00分～17時00分,,,通常入館料:大人・大学生500円 小・中・高校生350円（両館共通入場）（利用可能クレジットカード：無し）,,「記念館」では、銭屋五兵衛の波乱万丈の生涯を、シアターや北前船実物1/4の模型、商圏マップ検索装置などで学ぶことが出来ます。「銭五の館」は、現存する銭屋本宅の一部を移築し、当時の住居を再現しています。館内には銭屋一族ゆかりの遺品を展示、往時を偲ぶことができます。,,",JR金沢駅より北鉄バス金石・大野行き、金沢西警察署前（記念館前）下車徒歩5分",40台,,,,,,,,,,,,,,,,,,,076-267-7744,,,,,,,,http://www.zenigo.jp/,,
170003,,JJ0000000102,石川県,石川県庁19階展望ロビー,イシカワケンチョウ19カイテンボウロビー,ishikawakencho19kaitemborobi,,172014,,石川県金沢市鞍月1-1,石川県,金沢市,鞍月,1-1,,36.594788,136.62559,,,,10時～20時（1～3月の平日は10時00分～19時00分）,,,無料,,2003年1月に広坂旧県庁より移転。行政庁舎の19階は展望ロビーとなっており、一般に開放されています。東西南北ガラス張りの窓からは地上約80mからの景色を一望でき、晴れた日には白山や立山連峰なども見ることができます。夜は20時（1月～3月の平日は19時）まで開放されており、夜景百選に登録された夜景を楽しむことができます。また、週末を中心に、音楽演奏会や展示など各種イベントが開催されています。,,"北陸自動車道金沢東IC、金沢西より車で10分。,JR金沢駅西口よりバス10分、県庁前下車",一般来庁者用駐車場600台,,,,,,,,,,,,,,,,,,,076-225-1111,,,,,,,,http://www.pref.ishikawa.lg.jp/kensei/shisetsu/tembolobby/index.html,,
170003,,JJ0000000103,石川県,石川県七尾美術館,イシカワケンナナオビジュツカン,ishikawakennanaobijutsukan,,172022,,石川県七尾市小丸山台1-1,石川県,七尾市,小丸山台,1-1,,37.044876,136.953731,,,,9時00分～17時00分（入館は16時30分まで）,,,【2023.3.31まで】通常入館料金:大人800円以内、大高校生350円以内（企画展によって変動するため）　小・中学生無料【2023.4.1より一部改定】通常入館料金:大人800(700)円以内、大学生350(300)円以内（企画展によって変動するため）　高校生以下無料（高校生の方の学生証のご提示をお願いします）※（　）内は、20名以上の団体料金,,ドーム型の七つの屋根が特徴的な能登唯一の総合美術館。能登にゆかりのある作品を中心に優れた作品を展示。春には、桃山時代に活躍した七尾出身の画家、長谷川等伯（1539～1610）のシリーズ展を毎年開催している。また秋には親子で楽しめる「イタリア・ボローニャ国際絵本原画展」を開催している。,,"能越自動車道・七尾城山又は七尾ＩＣから約10分、のと里山海道・徳田大津JCTから車で約15分 ,JR七尾駅より約徒歩20分、市内循環バスまりん号･･･JR七尾駅前「ミナ.クル」ビルバス停から「七尾美術館前」下車（順回り約8分、逆回り約14分、1日各8便）",普通車62台、大型車4台（無料）			,,,,,,,,,,,,,,,,,,,0767-53-1500,,,,,,,,http://nanao-art-museum.jp/,,
170003,,JJ0000000104,石川県,石川県西田幾多郎記念哲学館,イシカワケンニシダキタロウキネンテツガクカン,ishikawakennishidakitarokinentetsugakukan,,172090,,石川県かほく市内日角井1,石川県,かほく市,内日角井,1,,36.714346,136.693836,,,,9時00分～17時00分（入館は16時30分まで）哲学の杜ライトアップ【点灯時間】：日没ー21時30分　　*哲学館休館日・メンテナンス・気象状況等により消灯とする場合があります。,,,展示室観覧料:高校生以下無料、一般300円（20名様以上で団体料金250円）、65歳以上200円、障害者手帳をお持ちの方およびその介護人（一人）無料（利用可能クレジットカード：無し）無料エリア：ホワイエ（地下・1階）、喫茶テオリア（２階）,,石川県西田幾多郎記念哲学館は日本を代表する哲学者・西田幾多郎の思想や人生にふれられる哲学の博物館です。西田博士の業績やゆかりの品を紹介しながら、哲学を身近にわかりやすく解説しています。館内には西田幾多郎をはじめ思想家たちの言葉が随所にちりばめられ、タブレットを使い、哲学者たちとの対談ゲームを遊ぶこともできます。ほかにも博士の遺品、原稿、書簡などを通じて、人となりを紹介しています。設計は世界的にも有名な安藤忠雄氏によるもの。「考えること」をテーマに作られた建物は迷路のように複雑で、瞑想の空間「ホワイエ」をはじめ、考えるためのスペースが随所にあります。打ちっ放しコンクリートにガラス張りの建物、丘陵地を利用した大きな階段庭園などは、思索体験の場にふさわしい雰囲気を醸し出しています。難しい哲学に興味を持たせる工夫と安藤氏の設計が評価され第９回いしかわ景観大賞を受賞しました。哲学と聞くと身構えてしまうかもしれませんが、美しい建物見て、ぼんやりと時間を過ごしながら自分と向き合うという気軽な気持ちで訪れてみてはいかがですか。西田哲学と安藤建築の心をぜひ体感してください。,,"のと里山海道白尾I.C.から車で3分,JR宇野気駅から徒歩20分　",普通車65台,,,,,,,,,,,,,,,,,,,076-283-6600,,,,,,,,http://www.nishidatetsugakukan.org/,,
170003,,JJ0000000105,石川県,石川県能登島ガラス美術館,イシカワケンノトジマガラスビジュツカン,ishikawakennotojimagarasubijutsukan,,172022,,石川県七尾市能登島向田町125部10番地,石川県,七尾市,能登島向田町,125部10番地,,37.137702,136.996185,,,,9時00分～17時00分(12～3月は9時00分～16時30分)※入館は閉館の30分前まで,,,【2023.3.31まで】一般 800（700）円、中学生以下無料※（　）内は、20名以上の団体料金【2023.4.1より一部改定】一般 800（700）円以内（特別展によって変動するため）、大学生350（300）円、高校生以下無料（高校生の方は学生証のご提示をお願いいたします）※（　）内は、20名以上の団体料金,,"豊かな自然に囲まれ、ひときわ目立つ建物がガラス美術館。世界各国の現代ガラス作家の造形作品を中心に400点近くの作品を収蔵しています。古今東西のガラス作品を紹介する企画展を開催し、ガラスを身近に楽しめるワークショップも行っています。現代建築とガラス造形が織りなす幻想的な空間をお楽しみください。<a href=""https://ishikawa.visit-town.com/plan/notojimakupon/"" target=""_blank"">＞＞能登島ガラス美術館の入館料がお得なクーポン券はこちらでも購入できます。 </a>※写真画像について、営利目的・商用に使用する方は、石川県能登島ガラス美術館までお問い合わせください",,",JR和倉温泉駅より「のとじま臨海公園ゆき」バスで約30分,「美術館前」下車",（無料）,,,,,,,,,,,,,,,,,,,0767-84-1175,,,,,,,,http://nanao-af.jp/glass/,,
170003,,JJ0000000106,石川県,石川県文教会館,イシカワケンブンキョウカイカン,ishikawakembunkyokaikan,,172014,,石川県金沢市尾山町10-5,石川県,金沢市,尾山町,10-5,,36.567331,136.655153,,,,9時00分～22時00分,,,ホームページを参照ください,,　教育文化を発信する拠点として、貸し館のほか各種事業を行っています。貸しホール：各種演奏会・公演などに適した音響・照明完備のホールです。貸し会議室：用途やご利用人数に合わせて、さまざまな会議室を用意しています。プロジェクターやスクリーン等の設備も充実。研修や会議などで利用できます。文教国際理解講座：世界の文化・経済等を英語・韓国語で学びます。教育資料：県内全域を対象に教育資料の調査収集活動を推進しています。石川の先達の汗の結晶である教育活動の記録を永く後世に伝えていくことは私たちの責務と言えましょう。アートウエイヴ：芸術文化活動の発表の場を提供し、地域文化の振興を図ることを目的としています。,,",JR金沢駅より北鉄バス「南町バス停」から徒歩2分",無し（近隣の有料駐車場をご利用ください）,,,,,,,,,,,,,,,,,,,076-262-7311,,,,,,,,http://www.bunkyo.or.jp/,,
170003,,JJ0000000107,石川県,石川県柳田星の観察館「満天星」,イシカワケンヤナギダホシノカンサツカン「マンテンボシ」,ishikawakenyanagidahoshinokansatsukan「mantemboshi」,,174637,,石川県鳳珠郡能登町字上町ロ-1-1,石川県,能登町,石川県鳳珠郡能登町字上町ロ-,1-1,,37.335557,137.137022,,,,開館時間9時30分～17時00分天体観測20時00分～（4月～10月）、19時00分～（11月～3月）「プラネタリウム投影時間はお問い合わせ下さい」,,,プラネタリウム　大人550円　小中学生330円　天体観測(要予約)　大人330円　小中学生220円,,"　4,000万個の星を映し出すプラネタリウムや県内最大の60センチ反射望遠鏡で宇宙の不思議を体験できます。展示ホールには触れることができる本物の隕石もあります。天体観望会では天の川や流れ星がみられるかもしれません。願い事を用意して来館してはいかがでしょうか。",,"のと里山海道 能登空港ICより車で30分,",300台,,,,,,,,,,,,,,,,,,,0768-76-0101,,,,,,,,http://mantenboshi.jp/,,
170003,,JJ0000000108,石川県,石川県立尾小屋鉱山資料館,イシカワケンリツオゴヤコウザンシリョウカン,ishikawakenritsuogoyakozanshiryokan,,172031,,石川県小松市尾小屋町力1-1,石川県,小松市,尾小屋町力,1-1,,36.2966865,136.5375126,,,,9時～17時※但し、入館は16時30分まで,,,【入館料】大人500円（高校生以下は無料）、団体（20名以上）400円※障がい者手帳（1名）と付き添い者1名は無料※こまつミュージアム･パスが使えます。,,"　尾小屋鉱山は、日本有数の銅山として知られています。古くは天和2（1682）年に採掘されていた記録があり、明治10年代から本格的な採掘が行われまました。昭和30年代頃をピークに発展し、年間2,000トンを超える粗銅を生産しましたが、昭和46（1971）年閉山しました。　資料館は、尾小屋鉱山の貴重な産業遺産と文化を後世に伝えるため、昭和59（1984）年開館し、坑道を利用した長さ553メートルのマインロードが平成4（1992）年にオープンしました。資料館とマインロードには、尾小屋鉱山で使われていた道具、図面や写真などの史料、鉱石などを保存展示しており、尾小屋鉱山について楽しみながら学べます。　また、隣の「ポッポ汽車展示館」では、旧尾小屋鉄道で活躍した蒸気機関車やディーゼル車などがオープン展示されています。",,"JR小松駅より車で30分、・小松空港・北陸自動車道小松ICより車で40分、・国道8号東山ICより車で20分,",20台（大型バス駐車可）,,,,,,,,,,,,,,,,,,,0761-67-1122,,,,,,,,https://komatsu-museum.jp/ogoya/,,
170003,,JJ0000000109,石川県,石川県立音楽堂　,イシカワケンリツオンガクドウ,ishikawakenritsuongakudo,,172014,,石川県金沢市昭和町20-1,石川県,金沢市,昭和町,20-1,,36.576662,136.647771,,,,9時00分～22時00分,,,各興行による,,　JR金沢駅東口に位置し、オーケストラ・アンサンブル金沢のコンサートや、邦楽、舞踊、寄席などが楽しめます。クラッシック音楽専用のコンサートホール、さまざまな伝統芸能に対応できる邦楽ホール、多目的使用の交流ホールと3つのホールを設けた全国でもまれな音楽文化施設です。,,",JR金沢駅東口から徒歩1分",あり,,,,,,,,,,,,,,,,,,,076-232-8111,,,,,,,,http://www.ongakudo.jp/,,
170003,,JJ0000000110,石川県,石川県立鹿島少年自然の家　,イシカワケンリツカシマショウネンシゼンノイエ,ishikawakenritsukashimashonenshizennoie,,174076,,石川県鹿島郡中能登町高畠原山分ハ部1番地,石川県,中能登町,石川県鹿島郡中能登町高畠原山分ハ部,1番地,,36.919791,136.891417,,,,8時30分から17時15分,,,,,　鹿島少年自然の家は、標高404メートル、碁石ヶ峰の山頂から約1キロの地点にあり、四季を通じて、小鳥のさえずり、植物の生長や変化、自然の美しさを実感することができる環境にあります。活動エリアは広く、1年を通して野外活動ができ、子どもたちの多様な活動に備えています。また、近隣施設も取りこんだ活動の場として、園児から高齢者までの多くの方々の希望を満たし、期待に応える施設です。,,"JR七尾線能登部駅から約7km、約20分のと里山海道今浜ICから約20km、約35分金沢より約1時間20分,高畠バス停から徒歩60分",,,,,,,,,,,,,,,,,,,,0767-77-2200,,,,,,,,http://www.ishikawa-shizen.jp/kashima/top.html,,
170003,,JJ0000000111,石川県,石川県立航空プラザ,イシカワケンリツコウクウプラザ,ishikawakenritsukokupuraza,,172031,,石川県小松市安宅新町丙92番地　（小松空港前）,石川県,小松市,安宅新町丙,92番地　（小松空港前）,,36.40448,136.410647,,,,9時00分～17時00分,,,入館無料シュミレーター利用料：200円・500円,,航空機の誕生から現在に至るまでの歴史や、航空宇宙技術の発達の過程を実機と模型、そして図表などの資料を使って分かりやすく解説している、航空機の博物館です。全日空で使用されていた実物のYS-11シミュレーターやセスナ、ジェット戦闘機などが体験できます。また、曲技飛行で有名なブルーインパルス機をはじめ、南極観測で活躍したスイス製のピラタス、各種ヘリコプター、F104戦闘機など実機が17機展示され、そのほかに人類初の飛行機から現代のハイテク機まで模型も多数そろえ、航空機の歴史、飛行の原理や仕組みなどを分かりやすく展示しています。さらには、屋内では日本最大級の飛行機型遊具を備えた子供広場は、大人から子供まで、天候に関係なく楽しめる施設として人気です。,,"北陸自動車道小松ICから小松空港方面へ約10分北陸自動車道片山津ICから小松空港方面へ約７分北陸自動車道安宅スマートICから小松空港方面へ約５分,JR小松駅から小松空港行きバス乗車、小松空港下車後、小松空港から徒歩3分JR小松駅から「小松バス」にて18分、「航空プラザ前」下車。",バス5台・普通車95台駐車可（バス駐車場は東側駐車場内） ,,,,,,,,,,,,,,,,,,,0761-23-4811,,,,,,,,https://komatsu-ccf.x0.com/culture/aviation_plaza/,,
170003,,JJ0000000112,石川県,石川県立大学,イシカワケンリツダイガク,ishikawakenritsudaigaku,,172120,,石川県野々市市末松1丁目308番地,石川県,野々市市,末松,1丁目308番地,,36.50658325,136.5967485,,,,8時30分～17時15分【見学】9時00分～17時00分(入館は16時00分まで),,,無料,,石川県立大学共通のテーマは、「生物資源環境学」。本学科の「生産科学科」「環境科学科」「食品科学科」では、「生物生産」「環境」「食品」という３つのフィルターを通して、自然・生物・人間の健全な関係の構築を目指します。ミクロの生命体からグローバルな学術分野まで広く深く学ぶことで、人とつながり、地球とつながり、やがて一人ひとりが見つめる未来へとつながっていきます。,,"JR金沢駅より約30分JR野々市駅、JR松任駅より約10分北陸自動車道白山ICから約15分,JR金沢駅または香林坊バス停より、北陸鉄道バス「南部車庫」、「辰口和光台」、「緑が丘十丁目」または「山島台四丁目」のいずれかに乗車し、「加賀産上林」下車、徒歩約15分JR野々市駅（JR金沢駅より7分程度）より、「シャトルバスのんキー」（1日7便）に乗車し 「県立大学」下車、徒歩すぐJR西金沢駅にて北陸鉄道石川線に乗り換え「乙丸駅」下車、徒歩約30分",30台,,,,,,,,,,,,,,,,,,,076-227-7220,,,,,,,,http://www.ishikawa-pu.ac.jp/,,
170003,,JJ0000000113,石川県,いしかわ生活工芸ミュージアム　,イシカワセイカツコウゲイミュージアム,ishikawaseikatsukogeimyujiamu,,172014,,石川県金沢市兼六町1-1,石川県,金沢市,兼六町,1-1,,36.56113176,136.6639949,,,,9時00分～17時00分※入館は16時45分まで※常時可能な体験プログラム受付時間：9時00分～11時00分、13時30分～16時00分,,,"【入館料】1階：無料2階：18歳以上260円(団体210円),65歳以上210円(団体210円),17歳以下100円(団体80円),6歳未満無料※利用可能クレジットカード：VISA/AMEX/MASTER CARD/AmericanExpress/ダイナースクラブカード※団体：30名以上【体験料】常時可能な体験プログラム材料実費・水引ぽち袋　500円+入館料・繭細工　500円+入館料・組子のコースター　1,000円+入館料・太鼓の端財で作るカスタネット　600円+入館料",,石川県内の伝統的工芸品全36品目を一堂に展示する唯一の施設です。県内伝統的工芸品36品目の魅力を紹介する常設展示のほか、伝統工芸の「いま」を紹介する様々な企画展を開催しております。また、毎週土・日の実演・体験や企画展ごとのワークショップなど、各種工芸イベントもお楽しみいただけます。ミュージアムショップはユニークでオシャレなアイテムが充実しています。詳しいプログラムはHPをご覧ください。,,"JR金沢駅から約15分北陸自動車道金沢西ICまたは金沢東IC、金沢森本ICから約30分,JR金沢駅より兼六園シャトルバスに乗車、15分。県立美術館・成巽閣下車、徒歩1分。",普通車12台※大型バス1台可(要予約)※最寄大型バス駐車場：兼六坂パーキング,,,,,,,,,,,,,,,,,,,076-262-2020,,,,,,,,http://ishikawa-densankan.jp,,
170003,,JJ0000000114,石川県,石川県立能楽堂　,イシカワケンリツノウガクドウ,ishikawakenritsunogakudo,,172014,,石川県金沢市石引4丁目18番3号,石川県,金沢市,石引,4丁目18番3号,,36.559562,136.663269,,,,9時00分～22時00分※見学は17時00分までとなります。16時30分までにご入館ください。,,,,,加賀宝生で知られる金沢の能楽の殿堂。「月例能」や「観能の夕べ」など手軽に能楽鑑賞が楽しめる行事が催される。,,"【タクシー】JR金沢駅から約15分【車】北陸自動車道 金沢東インターまたは金沢西インターから約30分※駐車スペースは僅かしかありませんので、出来るだけ公共交通機関をご利用ください。,JR金沢駅兼六園口から北陸鉄道バス「6番のりば」「7番のりば」小立野方面行き出羽町下車約3分",,,,,,,,,,,,,,,,,,,,076-264-2598,,,,,,,,https://noh-theater.jp/,,
170003,,JJ0000000115,石川県,石川県立能登少年自然の家　,イシカワケンリツノトショウネンシゼンノイエ,ishikawakenritsunotoshonenshizennoie,,174637,,石川県鳳珠郡能登町字九里川尻16-20,石川県,能登町,石川県鳳珠郡能登町字九里川尻,16-20,,37.338506,137.252951,,,,,,,"1泊3食　1,750円　冷暖房費1人1日　100円			（クレジットカード不可）",,　「青い海、緑の大地、はずむ声」をキャッチフレーズに、海での大型カヌーや、河川での小型カヌーなど、児童、生徒の体験活動を行う施設です。海辺の小高い丘にある、船をかたどった建物の周囲は、緑と太陽と磯の香りに満ち溢れています。,,"金沢東ICよりのと里山海道、すず道路（大規模農道）経由で2時間30分,金沢駅東口（兼六園口）―【特急バス宇出津真脇特急（北鉄奥能登バス（株）】―内浦庁舎前下車（徒歩２０分）",普通車6台、バス2台（無料）			,,,,,,,,,,,,,,,,,,,0768-72-2200,,,,,,,,,,
170003,,JJ0000000116,石川県,石川県立白山青年の家　,イシカワケンリツハクサンセイネンノイエ,ishikawakenritsuhakusanseinennoie,,172103,,石川県白山市八幡町戌142,石川県,白山市,八幡町戌,142,,36.442448,136.632734,,,,,,,,,　加賀平野を一望できる、白山市八幡町の舟岡山台地にあります。　豊かな自然に囲まれた環境にあり、学校のクラブ合宿、生徒会活動、宿泊学習や子供会、サークル活動や趣味の会など幅広く利用されています。　周辺には名所旧跡も数多くあり、幅広い年齢の方々が利用しています。,,",",,,,,,,,,,,,,,,,,,,,076-272-3695,,,,,,,,http://www.hakusanseinen.jp,,
170003,,JJ0000000117,石川県,石川県立白山ろく民俗資料館　,イシカワケンリツハクサンロクミンゾクシリョウカン,ishikawakenritsuhakusanrokuminzokushiryokan,,172103,,石川県白山市白峰リ30,石川県,白山市,白峰リ,30,,36.179508,136.622584,,,,9時00分～16時30分(受付16時00分まで),,,一般260円 ・65歳以上200円 ・高校生以下無料・団体（20名位以上）210円,,　白山ろく民俗資料館は、白山麓に住んだ人たちの生活を再現する野外展示施設です。ここには、昔の家屋をそのまま移築し、当時の道具類も展示してあります。　昔の生活は現代とは違っていますが、自然の理にかなった暮らしぶりには、なるほどと感心します。　わら細工やオバル染めなどの体験も実施しています。昔の山村生活を体験してみませんか。,,",JR金沢駅より加賀白山バス白峰行きバスで120分白峰北口バス停から徒歩10分",３0台,,,,,,,,,,,,,,,,,,,076-259-2665,,,,,,,,,,
170003,,JJ0000000118,石川県,石川県立美術館　,イシカワケンリツビジュツカン,ishikawakenritsubijutsukan,,172014,,石川県金沢市出羽町2－1,石川県,金沢市,出羽町,2－1,,36.56016312,136.661175,,,,コレクション（常設）展示室：9時30分～18時00分まで（入室は17時30分まで）カフェ：10時00分～18時00分まで営業（営業時間は今後変更となる場合があります）			,,,コレクション（常設）展示室：一般370円（290円）、大学生290円（230円）、高校生以下無料　※（　）は20人以上の団体料金、企画展は別途必要。,,国宝の「色絵雉香炉」（野々村仁清作）をはじめ、石川県が誇る名品を展示しています。古九谷や、加賀藩前田家伝来の文化財、石川県ゆかりの芸術院会員や人間国宝の絵画・彫刻・工芸など、古美術から現代まで、石川県ならではの美術工芸品を幅広くご覧いただけます。館内にはパティシエ辻口博啓氏プロデュースのカフェも併設しています。2016年4月には、石川県立美術館広坂別館横に「石川県文化財保存修復工房」が移転・リニューアルオープンし、実際の修復作業を常時見学できます。,,"北陸自動車道金沢西ICまたは森本ICから20～30分,・金沢駅東口から路線バス乗車、「広坂・21世紀美術館」下車、徒歩約5分・金沢駅東口から路線バス乗車、「出羽町」下車、徒歩約10分",60台,,,,,,,,,,,,,,,,,,,076-231-7580,,,,,,,,http://www.ishibi.pref.ishikawa.jp,,
170003,,JJ0000000119,石川県,石川県立山中漆器産業技術センター,イシカワケンリツヤマナカシッキサンギョウギジュツセンター,ishikawakenritsuyamanakashikkisangyogijutsusenta,,172065,,石川県加賀市山中温泉塚谷町イ270番地,石川県,加賀市,山中温泉塚谷町イ,270番地,,36.25604458,136.3718899,,,,9時00分～17時00分≪見学≫展示室・資料室：9時00分～17時00分木地工房・研修所：10時00分～16時00分≪体験≫10時00分～15時00分,,,≪見学≫無料≪体験≫体験予約時にご確認ください。,,全国の頂点に立つ「挽物轆轤技術」の修得と後継者育成、及び将来の山中漆器産業を担う人材の養成、自主研究等を行うための産業振興の中核施設であり、全国で唯一「挽物轆轤技術」を専門的に学べる研修施設です。,,"北陸自動車道加賀ICから山中温泉方向の看板にしたがい約30分JR加賀温泉駅から約20分,小松空港【キャンバス／小松空港線、約32分】又は、JR小松駅【JR、13分】からJR加賀温泉駅に向かい、加賀温泉駅前より加賀温泉バス(温泉山中線)の山代温泉・山中温泉方面行きに乗車、塚谷停留所で下車(約24分)、徒歩3分",乗用車　8台大型バス　1台,,,,,,,,,,,,,,,,,,(公財)山中漆器産業技術センター,0761-78-1696,,,,,,,,http://yamanaka696.org/,,
170003,,JJ0000000120,石川県,石川県立歴史博物館（いしかわ赤レンガミュージアム）,イシカワケンリツレキシハクブツカン（イシカワアカレンガミュージアム）,ishikawakenritsurekishihakubutsukan（ishikawaakarengamyujiamu）,,172014,,石川県金沢市出羽町3-1,石川県,金沢市,出羽町,3-1,,36.558634,136.662564,,,,午前９時～午後５時（ただし、入館は午後４時３０分まで）,,,《常設展のみ》一般	３００円（団体２４０円）大学生	２４０円（団体１９０円）※団体は２０名以上　６５歳以上の方は２４０円　高校生以下は無料《加賀本多博物館との共通券もあります》一般５００円　大学生４００円　高校生以下無料※特別展は別途料金となります。常設展と特別展のセット料金もあります。,,旧陸軍兵器庫の赤レンガ棟を再生した建物は、国の重要文化財となっています。展示室では原始の玉作りや古代の東アジアとの交流、中世の一向一揆、近世の参勤交代、近代の美術工芸、そして現代まで続く祭礼風流など、多彩な展示コーナーを設けています。豊富な実物資料やジオラマ、大型画面での迫力ある映像などにより、石川の歴史と文化を楽しく学べる博物館です。,,",JR金沢駅より北陸鉄道バスで約15分（出羽町バス停下車徒歩5分）",,,,,,,,,,,,,,,,,,,,076-262-3236,,,,,,,,http://ishikawa-rekihaku.jp/,,
170003,,JJ0000000121,石川県,石川県農林総合研究センター 林業試験場(樹木公園),イシカワケンノウリンソウゴウケンキュウセンター リンギョウシケンジョウ(ジュモクコウエン),ishikawakennorinsogokenkyusenta ringyoshikenjo(jumokukoen),,172103,,石川県白山市三宮町ホ1,石川県,白山市,三宮町ホ,1,,36.430554,136.640738,,,,8時30分～17時00分(展示館は9時30分～16時30分),,,,,"手取川の本流を見下ろす高台にある県林業試験場の構内にあり、約27ヘクタールの敷地に約800種、15,000本を超える樹木が植えられており、なかでもサクラは約130品種・約900本、ツバキは約140品種・850本と多く、全国的にも有数の規模となっています。公園に併設する林業試験場展示館には、昔から使われていた林業用具や樹木標本、動物、野鳥標本、古文書、文献類、石川県の林業の現況を示すパネル、写真などが展示公開され、「第66回全国植樹祭」（平成27年5月開催）の感動を末永く記憶にとどめ、県民参加の森づくりを更に進展させるため、式典備品（陛下御使用御机、両陛下御使用のお手播き種箱、御鍬、御種入れ枡、お絞り受け）の展示コーナーも設置されています。公園内は、季節ごとに移り変わる野生植物やキノコ、そして野鳥やカモシカ、リスなどの動物を見ることできることから多くの方が訪れる憩いの場所となっています。",,",北陸鉄道石川線鶴来駅から徒歩40分",180台(17時00分～翌朝8時30分までは駐車不可),,,,,,,,,,,,,,,,,,石川県農林総合研究センター林業試験場,076-272-0673,,,,,,,,http://www.pref.ishikawa.lg.jp/ringyo/,,
170003,,JJ0000000122,石川県,石川県輪島漆芸美術館,イシカワケンワジマシツゲイビジュツカン,ishikawakenwajimashitsugeibijutsukan,,172049,,石川県輪島市水守町四十苅11,石川県,輪島市,水守町四十苅,11,,37.389896,136.892156,,,,9:00～17:00(入館は16:30まで),,,【通常入館料】一般630円　高・大学生320円　小・中学生150円【20人以上で団体割引適用】一般520円　高・大学生210円　小・中学生100円,,漆の里・輪島が誇る漆芸専門の美術館。古典から現代作品まで、漆芸品の魅力を味わえる各種のテーマにそって取材した、さまざまな企画展の他、日本を代表する漆器として知られる輪島塗の技と歴史を常時紹介しています。また1階特別展示スペースにて、輪島塗技術保存会が5年もの歳月をかけて制作した輪島塗大型地球儀「夜の地球 Earth at Nignt」が公開されています。,,"・金沢駅からのと里山海道経由で約2時間（「のと里山空港IC」下車）・のと里山空港ICから約25分,・金沢から輪島特急バス乗車約2時間20分　輪島駅前下車(乗り換え)→輪島駅前(道の駅輪島)よりのらんけバス(海コース)で「漆芸美術館」バス停下車",普通車42台（無料駐車場完備）,,,,,,,,,,,,,,,,,,,0768-22-9788,,,,,,,,http://www.city.wajima.ishikawa.jp/art/,,
170003,,JJ0000000123,石川県,石川県輪島水泳プール（輪島市町野水泳プール）,イシカワケンワジマスイエイプール（ワジマシマチノスイエイプール）,ishikawakenwajimasuieipuru（wajimashimachinosuieipuru）,,172049,,石川県輪島市町野町東大野出村109,石川県,輪島市,町野町東大野出村,109,,37.438964,137.078461,,,,7月中旬～8月31日の期間中9:00～18:30,,,お問い合わせください。,,貸切（専用）で利用できます。隣接して輪島市営町野野球場や輪島市営町野テニスコートもあります。施設内には、日本水泳連盟公認の50mプールが8コース、25mプールが6コースあります。障害者用お手洗いは外の公衆トイレをご利用ください（プール館内にはありません）。,,"・輪島市街から国道249号線を珠洲方面へ約25分,・輪島駅前から北鉄奥能登バス(町野線)　敷戸バス停下車　徒歩15分",約50台(無料),,,,,,,,,,,,,,,,,,町野スポーツ施設管理棟,0768-32-1040,,,,,,,,https://www.city.wajima.ishikawa.jp/shougai/wajimasports/establish/wajima_pool.html,,
170003,,JJ0000000124,石川県,いしかわサイエンスパーク,イシカワサイエンスパーク,ishikawasaiensupaku,,172111,,石川県能美市旭台2丁目1番地　石川ハイテク交流センター内,石川県,能美市,旭台,2丁目1番地　石川ハイテク交流センター内,,36.445814,136.590271,,,,9時00分～17時15分,,,見学無料,,　いしかわサイエンスパークでは、北陸先端科学技術大学院大学を核として、研究機関、支援機関が一体となって、新たな「知」と「産業」を創出します。,,"小松空港から車で約40分(約21Km)松任駅から約25分(約15Km)金沢駅から約50分(約20Km),JR西金沢駅から北陸鉄道石川線で鶴来駅下車、鶴来駅からJAISTシャトルバスで約10分",普通車100台　駐車無料,,,,,,,,,,,,,,,,,,,0761-51-0122,,,,,,,,http://www.isico.or.jp/isp/,,
170003,,JJ0000000125,石川県,石川四高記念文化交流館　,イシカワシコウキネンブンカコウリュウカン,ishikawashikokinembunkakoryukan,,172014,,石川県金沢市広坂2丁目2－5,石川県,金沢市,広坂,2丁目2－5,,36.562499,136.655734,,,,多目的利用室 9時00分～21時00分展示室 9時00分～17時00分（入室は16時30分まで）,,,"通常料金：一般370円、大学生290円、高校生以下無料（入場料金は企画展示開催中変わることがあります）（利用可能クレジットカード：VISA,MasterCard,JCB,アメリカン・エキスプレス,Diners Club,中国銀聯）",,　有料ゾーンの「石川近代文学館」と無料ゾーンの「石川四高記念館」から成ります。国の重要文化財である赤レンガ建築の雰囲気を生かした「学びと触れ合いの空間」です。,,",JR金沢駅より香林坊バス停下車徒歩2分",無し,,,,,,,,,,,,,,,,,,,076-262-5464,,,,,,,,http://www.pref.ishikawa.jp/shiko-kinbun/,,
170003,,JJ0000000126,石川県,いしかわ総合スポーツセンター　,イシカワソウゴウスポーツセンター,ishikawasogosupotsusenta,,172014,,石川県金沢市稚日野町北222番地,石川県,金沢市,稚日野町北,222番地,,36.579394,136.598269,,,,9時00分～22時00分,,,"使用施設により異なりますので <a href=""http://www.ishikawa-spc.jp/useguide/index.html"" target=""_blank"">公式サイトの利用案内</a>でご確認ください。※毎月7日の「健康の日」および「体育の日」は個人利用に限り無料となります。",,石川のスポーツ振興の中核的拠点施設として、「競技力の向上」および「生涯スポーツ社会の実現」を図っています。,,"金沢駅金沢港口から約20分北陸自動車道金沢西ICから5分,金沢駅から済生会病院もしくは下安原行き、総合スポーツセンター前バス停下車",500台,,,,,,,,,,,,,,,,,,,076-268-2222,,,,,,,,http://ishikawa-spc.jp,,
170003,,JJ0000000127,石川県,石川北部RDFセンター,イシカワホクブアールディエフセンター,ishikawahokubuarudeiefusenta,,173843,,石川県羽咋郡志賀町矢駄11字103番地,石川県,志賀町,石川県羽咋郡志賀町矢駄,11字103番地,,37.001053,136.842124,,,,,,,,,石川北部RDFセンターは、石川県の北部地域で製造されたRDF（ごみ固形化燃料）を全量受入れ処理しています。RDF（ごみ固形化燃料）を焼却することにより発生する熱エネルギーを回収し発電を行うとともに、灰等は溶融してスラグ化することでコンクリート製品等の材料に利用されます。こうして、資源を有効活用することで資源循環社会を推進している、国内唯一のRDF（ごみ固形化燃料）の流動床ガス化溶融施設です。,,"のと里山海道上棚矢駄ICから車で約5分,",乗用車15台、大型バス2台専用駐車場あり,,,,,,,,,,,,,,,,,,,0767-36-8888,,,,,,,,,,
170003,,JJ0000000128,石川県,石川ルーツ交流館,イシカワルーツコウリュウカン,ishikawarutsukoryukan,,172103,,石川県白山市美川南町ヌ138-1,石川県,白山市,美川南町ヌ,138-1,,36.485543,136.483491,,,,9時00分～17時00分,,,一般310円、中学生以下無料,,　石川ルーツ交流館は、北前船で栄えた旧美川町の歴史や文化をはじめとして、県庁が置かれていた明治初期の旧美川町の様子や白山市のジオパークの拠点の一つとして、手取川の自然や治水を子供たちにもわかりやすく紹介した総合学習施設であり、文化施設になっています。　現在の石川県の名は、当時の石川郡美川町の「石川」という郡名に由来して付けられたものであり、まさに旧美川町は石川県のルーツです。,,"北陸自動車道美川ICより車で5分、金沢から車で約30分,JR美川駅から徒歩5分",あり,,,,,,,,,,,,,,,,,,,076-278-7111,,,,,,,,http://www.hakusan-museum.jp/roots/,,
170003,,JJ0000000129,石川県,石積六角地蔵塔,イシヅミロッカクジゾウトウ,ishizumirokkakujizoto,,173843,,石川県羽咋郡志賀町大島,石川県,志賀町,石川県羽咋郡志賀町大島,,,36.987435,136.765969,,,,,,,,,能登半島国定公園・大島海岸には、日本海のさざ波が打ち寄せる大島諸願堂の端に、石積の六角地蔵塔が物悲しくたたずんでいます。伝承によれば、その昔、肥前大村（現在の長崎県大村市）の船持武太夫の息子が乗った船が大島の沖で難破し、息子はもちろん乗組員たちも死亡するという出来事がありました。悲しみに暮れた武太夫は、何とか息子や乗組員たちの供養をしたいと考え、遠い故郷の肥前から石を運び、大島の地に塔を建てたということです。この地蔵塔は、今もなお日本海の潮風に吹かれ、時には荒れ狂う波に耐えながら、海の安全を見守っています。この塔は、室町時代に建てられたと推定されています。,,"羽咋方面より国道249号大島交差点左折400メートル,",,,,,,,,,,,,,,,,,,,志賀町商工観光課,0767-32-1111,,,,,,,,https://shika-guide.jp/spot/240/,,
170003,,JJ0000000130,石川県,伊須流岐比古神社,イスルギヒコジンジャ,isurugihikojinja,,174076,,石川県鹿島郡中能登町石動山子部1番地1,石川県,中能登町,石川県鹿島郡中能登町石動山子部,1番地1,,36.963596,136.974186,,,,,,,,,1653（承応2）年、加賀藩3代藩主前田利常の寄進により、伊須流岐比古神社は建立されました。神興堂（権現堂）と呼ばれていた拝殿は、1701（元禄14）年に造られ、両建物は県指定文化財に指定されています。,,"のと里山海道柳田ICから車で40分JR良川駅から車で30分,",あり,,,,,,,,,,,,,,,,,,石動山資料館,0767-76-0408,,,,,,,,,,
170003,,JJ0000000131,石川県,泉鏡花「滝の白糸」碑,イズミキョウカ「タキノシライト」ヒ,izumikyoka「takinoshiraito」hi,,172014,,石川県金沢市橋場町浅野川畔,石川県,金沢市,橋場町浅野川畔,,,36.5703,136.666729,,,,,,,,,　泉鏡花の出世作「義血侠血」の主人公の記念碑です。滝の白糸（本名：水島友）は、鏡花が生涯かけて追求した理想の女性像でもありました。,,"金沢駅から約10分(約2km)北陸自動車道金沢東ICから約15分（約4km),「橋場町」バス停から徒歩5分",付近に東山観光駐車場、東山北観光駐車場、東山河畔観光駐車場有り,,,,,,,,,,,,,,,,,,泉鏡花記念館,076-222-1025,,,,,,,,,,
170003,,JJ0000000132,石川県,泉鏡花記念館,イズミキョウカキネンカン,izumikyokakinenkan,,172014,,石川県金沢市下新町2-3,石川県,金沢市,下新町,2-3,,36.571411,136.663118,,,,9時30分～17時00分（入館は16時30分まで）,,,"一般310円、65歳以上210円、高校生以下無料、団体（20名以上）260円（利用可能クレジットカード：VISA,Mastercard,JCB）",,金沢が生んだ文豪泉鏡花は、浅野川にほど近い下新町で生まれました。父・泉清次は加賀象嵌の彫金師、母・鈴は宝生流シテ方の重鎮松本金太郎の妹です。鏡花が幼少時代を過ごした生家跡地に、1999（平成11）年記念館が開館しました。町家造りを活かした館内に自筆原稿や書簡のほか、美しい初版本の数々を展示しています。幻想的な鏡花の世界に触れることができる空間です。,,",「城下まち金沢周遊バス」（右回り）橋場町（金城楼前）下車、徒歩3分",4台,,,,,,,,,,,,,,,,,,,076-222-1025,,,,,,,,http://www.kanazawa-museum.jp/kyoka/,,
170003,,JJ0000000133,石川県,泉鏡花句碑（卯辰山公園内）,イズミキョウカクヒ（ウタツヤマコウエンナイ）,izumikyokakuhi（utatsuyamakoennai）,,172014,,石川県金沢市卯辰山公園,石川県,金沢市,卯辰山公園,,,36.569744,136.670618,,,,,,,,,卯辰山への登り口の脇にひっそりと建っており、幼いころに母を失った鏡花の心情が伝わる「はゝこひし　夕山桜　峰の松」の句が刻まれています。,,"金沢駅から約15分(約5km)北陸自動車道金沢東ICから約15分(約5km),「天神橋」バス停kara徒歩5分",有り（卯辰山公園）,,,,,,,,,,,,,,,,,,泉鏡花記念館,076-222-1025,,,,,,,,,,
170003,,JJ0000000134,石川県,イソライト珪藻土記念館,イソライトケイソウドキネンカン,isoraitokeisodokinenkan,,172022,,石川県七尾市石崎町ヨ部1番地,石川県,七尾市,石崎町ヨ部,1番地,,37.07729,136.926179,,,,9時00分～15時00分,,,無料,,イソライト工業株式会社では、創立80周年を迎え、会社の発展の基となった珪藻土に感謝すると共に先達の遺徳をたたえ、社業の歴史、記録をとどめる「イソライト珪藻土記念館」を七尾市の和倉温泉近くにある七尾工場敷地内で開館しました。館内では、能登半島に埋蔵される珪藻土に関する解説のほか、珪藻土からできた製品の展示や会社紹介の映像放映などを行っています。,,"国道159号線七尾駅から約10分　能登道路徳田大津ICから約20分,JR和倉温泉駅より徒歩約5分",30台 専用駐車場あり,,,,,,,,,,,,,,,,,,,0767-62-2313,,,,,,,,,,
170003,,JJ0000000135,石川県,一里野高原ホテル　ろあん,イチリノコウゲンホテル　ロアン,ichirinokogenhoteru　roan,,172103,,石川県白山市尾添チ70-4,石川県,白山市,尾添チ,70-4,,36.26836733,136.7166774,,,,11：00～20：00,,,"1泊素泊まり：7,000円～（税込）1泊2食付：13,000円～（税込）",,白山の大自然の高原にある源泉かけ流し100％の温泉宿。有機無農薬や減農薬の米、野菜に飛騨牛、岩魚、白山堅豆腐などの白山地物の食材にこだわった炭火ご膳を、築100年の古民家の雰囲気たっぷりの民芸食事処でお召し上がりください。大浴場は木々に囲まれた森林浴もできる畳の露天風呂が人気。混浴のできる貸切家族風呂は岩露天風呂と総ヒノキ風呂の２種類をご用意。館内の全ての風呂は24時間源泉かけ流し100％。弱食塩泉の湯は別名「熱の湯」とも呼ばれる身体の芯から温まる湯冷めしにくい温泉。金沢から車で約60分・世界遺産白川郷から白山白川郷ホワイトロード経由で約90分と観光の拠点にも便利です。石川県最大のスキー場「一里野温泉スキー場」徒歩1分。,,"北陸自動車道金沢森本IC又は白山ICから車で60分,",40台（無料）,,,,,,,,,,,,,,,,,,,076-256-7141,,,,,,,,http://ichirino.jp,,
170003,,JJ0000000136,石川県,一閑寺,イッカンジ,ikkanji,,172103,,石川県白山市鶴来本町4丁目チ18,石川県,白山市,鶴来本町,4丁目チ18,,36.456422,136.624794,,,,8時00分～17時00分,,,拝観料　300円,,　不動明王像は、高さが約8メートルあり、自然の1枚石に刻まれた日本最大級の磨崖仏（まがいぶつ）です。眼病治癒の霊験があるほか、商売繁盛、魔除けのご利益があるとして、多くの人々が参詣しています。　現在の像は江戸時代末期に作られました。また、加賀藩主前田家の家紋「剣梅鉢」の使用を許され、現在も瓦に使用されています。,,"金沢駅から40分、松任駅から20分、美川駅から30分、鶴来駅から5分,北陸鉄道鶴来駅より徒歩約8分",あり(無料),,,,,,,,,,,,,,,,,,一閑寺,076-272-0453,,,,,,,,,,
170003,,JJ0000000137,石川県,いっぷく処 おはぎ屋,イップクドコロ オハギヤ,ippukudokoro ohagiya,,172103,,石川県白山市白山町レ122-1,石川県,白山市,白山町レ,122-1,,36.437183,136.634049,,,,【月～金】9時00分～16時00分【土・日・祝】9時00分～17時00分※毎月1日は5時00分より営業します。,,,"≪体験≫お一人様1,500円(体験料・お土産付)",,"白山比?神社参詣客に軽食やお土産物を販売するお休み処としてオープンした、いっぷく処『おはぎ屋』。ご参拝のおやすみ処として和菓子・軽食・喫茶の提供や食品・工芸品の展示販売も行っています。また鶴来地区の秋まつりの味・笹寿司を製造販売するほか、笹寿司づくりの体験も行っています。笹寿司を3個作ることができる専用の木製の押し器も付いて1,500円。できてから半日くらいが食べごろです。",,"JR金沢駅から40分,北陸鉄道鶴来駅より白峰行きバス10分",白山比?神社表参道無料駐車場(観光バス可)　50台,,,,,,,,,,,,,,,,,,,076-272-5510,,,,,,,,http://www.urara-hakusanbito.com/spot/view/360,,
170003,,JJ0000000138,石川県,一本松総合運動公園,イッポンマツソウゴウウンドウコウエン,ippommatsusogoundokoen,,172049,,石川県輪島市河井町・杉平町1-12,石川県,輪島市,河井町・杉平町,1-12,,37.391556,136.9093,,,,プール：平日10:00～20:30　土日祝10:00～18:30ジム・アリーナ：9:00～21:30(全日),,,［プール(1回)］　一般：520円　高校生以下：210円　未就学児：無料［アリーナ(1回)］　一般：420円　高校生以下：210円 ,,春には桜やツツジが咲き誇り、秋は紅葉と市民の散策の場になっています。晴れた日には、七ツ島もうっすらと見える見晴らしのよい公園です。◆施設概要　サン・アリーナ（体育館）:バスケットボール公式コート2面、バレーボール公式コート2面、バドミントン公式コート8面、健康相談室、ランニングコース、ミーティングルーム、軽運動室サン・プルル（輪島市民温水プール）:7コース（25m）、小プール一本松ゲートボール場:ゲートボール場2面広場や集会所もあります。,,"金沢からのと里山海道経由約2時間(のと里山空港ICから約20分),金沢駅から輪島特急バス乗車約2時間30分「輪島駅前」下車(徒歩or乗り換え)【徒歩】「輪島駅前」より徒歩20分【バス】「輪島駅前」よりのらんけバス(档コース)で「総合運動公園」バス停下車",200台,,,,,,,,,,,,,,,,,,輪島市　都市整備課,0768-23-1156,,,,,,,,https://wajimanavi.jp/,,
170003,,JJ0000000139,石川県,井上靖文学碑,イノウエヤスシブンガクヒ,inoueyasushibungakuhi,,173657,,石川県河北郡内灘町宮坂に461（ 内灘町総合公園内）,石川県,内灘町,石川県河北郡内灘町宮坂に,461（ 内灘町総合公園内）,,36.663126,136.650739,,,,,,,,,旧四高在学時代、よく内灘砂丘を散策したという井上氏の直筆で「日本海美し 内灘の砂丘美し 波の音聞きて 生きる人の心美し」と刻まれている。,,",北鉄浅野川線内灘駅→なだバスナディ南部ルート（約２２分）→福祉センター下車→徒歩（約４分）",有り,,,,,,,,,,,,,,,,,,内灘町　文化スポーツ課,076-286-6716,,,,,,,,,,
170003,,JJ0000000140,石川県,今井金箔本店,イマイキンパクホンテン,imaikimpakuhonten,,172014,,石川県金沢市幸町7-3,石川県,金沢市,幸町,7-3,,36.55425886,136.6610994,,,,9時30分～18時00分≪体験開始時間≫10時00分～、13時00分～、15時00分～※開始時間の10分前までにお越しください。　,,,無料,,"金箔の薄さ（10,000分の1ミリ）の素晴らしさと永遠の輝きを目と心で確かめて、金箔をもっと身近に感じることができる店です。金箔製造工程の説明を受け、実際に金箔に触り、食べることもできる体験処が人気です。各種箔をはじめ、工芸品、お土産品、贈答品がそろう金の店です。店の中央にある井戸は必見。清水が湧き出ており、兼六園の「金城霊沢」を模しています。囲みはすべて純金箔を装い、泉の底には3万個の純金露玉が散りばめてあります。",,"北陸自動車道金沢西ICより20分,北鉄バス18番「東部車庫行」幸町下車、徒歩3分金沢周遊バス「本多町」下車徒歩7分",普通車、大型バス駐車場完備,,,,,,,,,,,,,,,,,,,076-223-8989,,,,,,,,http://www.kinpaku.co.jp,,
170003,,JJ0000000141,石川県,今江温泉元湯,イマエオンセンモトユ,imaeonsemmotoyu,,172031,,石川県小松市今江町7-205,石川県,小松市,今江町,7-205,,36.381705,136.436674,,,,,,,,,　源泉かけ流しの温泉です。　男湯と女湯の脱衣場の境にある番台、カギがしまりにくい木のロッカー、昭和のにおいがする銭湯です。　浴槽は深湯でバイブロです。泡風呂、電気風呂、サウナ、水風呂があります。お湯は透明で、温まり度はかなり良いです。　また、駐車場の脇には飲泉所と足湯場所があります。　泉質:ナトリウム塩化物泉（弱アルカリ性低張性高温泉）、無色透明。,,"JR小松駅からバスで約10分「今江」バス停下車,",20台,,,,,,,,,,,,,,,,,,,0761-21-4126,,,,,,,,https://ishikawa1010.com/bath/26/,,
170003,,JJ0000000142,石川県,牛首紬,ウシクビツムギ,ushikubitsumugi,,172103,,石川県白山市白峰ヌ17,石川県,白山市,白峰ヌ,17,,36.176804,136.623251,,,,（白山工房）9時00分～16時00分,,,,,　牛首紬（うしくびつむぎ）の名前は、生産地である白山市・白峰の旧地名「牛首村」に由来しています。　白山市白峰地区（旧白峰村）で生産される紬織物は、一説には平治の乱に敗れた源氏一族が、この地に逃れて地元民に教えたものといわれ、元禄年間（1688～1703年）にはすでに全国にその名が知られていました。　別名釘抜紬とも呼ばれ、釘にひっかけても反対に釘が抜けるという、その丈夫さからこの名があります。　伝統の糸造り、手織りのなかから生まれる牛首紬は、丈夫で素朴な美しさを秘めた独特の味わいを有し、他に類をみない紬と言われています。,,",JR金沢駅より加賀白山バス白峰行きで120分、白峰北口下車、徒歩で3分 ",10台,,,,,,,,,,,,,,,,,,白山工房,076-259-2859,,,,,,,,http://www.hakusan-koubou.jp,,
170003,,JJ0000000143,石川県,臼ヶ峰　遊歩道(歴史の道百選),ウスガミネ　ユウホドウ（レキシノミチヒャクセン）,usugamine　yuhodo（rekishinomichihyakusen）,,173860,,石川県羽咋郡宝達志水町見砂,石川県,宝達志水町,石川県羽咋郡宝達志水町見砂,,,36.84819,136.861839,,,,24時間,,,無料,,　歴史探訪の魅力あふれる臼ヶ峰は、頂上が臼のように平らになっていることから名づけられました。四方に千里浜海岸、宝達山、富山湾などの一大パノラマが楽しめます。また、能登と加賀、越中を結ぶ街道は「万葉ルート」、「御上使往来」とも言われ、大伴家持の歌碑や、佐渡に流罪となる親鸞聖人の像が遥か彼方を見つめて立つ旅姿が印象的です。山頂は緑地公園になっており、夏はキャンプ、秋は紅葉、ハイキングが楽しめます。　※臼ヶ峰そのものは氷見市指定史跡。,,",JR敷浪駅から約30分",有り,,,,,,,,,,,,,,,,,,宝達志水町埋蔵文化財センター,0767-28-5180,,,,,,,,https://www.hodatsushimizu.jp/kanko/kanko/3/4/historic_site/1385.html,,
170003,,JJ0000000144,石川県,宇多須神社,ウタスジンジャ,utasujinja,,172014,,石川県金沢市東山1-30-8,石川県,金沢市,東山,1-30-8,,36.573077,136.668396,,,,,,,,,"　浅野川の河辺から掘り出した古鏡に卯と辰の紋様があり、卯辰神を祀ったことが起こり。初代藩主利家没後、卯辰八幡宮を建立し、利家の神霊を祀って藩社とした。境内奥手には五代綱紀の病を平癒したとする「利常公酒湯の井戸」がある。2月3日の節分祭は東の芸妓衆が踊りを奉納し福豆をまきます。お祓い、参拝の方の駐車場もあります。""",,",東山バス停下車徒歩3分",,,,,,,,,,,,,,,,,,,,076-252-8826,,,,,,,,http://www.ishikawa-jinjacho.or.jp/shrine/j0324/,,
170003,,JJ0000000145,石川県,卯辰山公園,ウタツヤマコウエン,utatsuyamakoen,,172014,,石川県金沢市東御影町、卯辰町ほか,石川県,金沢市,東御影町、卯辰町ほか,,,36.573001,136.678106,,,,,,,,,卯辰山は金沢市の東側にあって、面積約300ha、金沢城から見れば東方やや南寄りとなり、それが方位からすれば卯辰の方角にあたるので、この名で呼ばれたといわれています。別名向山（むかいやま）と呼ぶのは、同じく金沢城から見て浅野川の向う側の意味らしく、また、夢香山と書くことがあります。ここは市内で最も身近な自然公園で、山頂部までバス道路が通じています。泉鏡花、徳田秋声の文学碑、西田幾多郎の旧趾があって散策の人も多く見られます。また、山上に相撲場、奥卯辰山健民公園、花菖蒲園などもあり、とくに春はサクラ、秋は紅葉の鑑賞に訪ねる人が絶えません。標高141mの望湖台からは、金沢の黒光りする屋根瓦の町並みや日本海・白山連峰まで一望することができます。夜景スポットとしても人気です。兼六園や金沢城からも近いので、ぜひ訪れてみてはいかがでしょうか。,,"金沢駅から約15分(約5km)北陸自動車道金沢東ICから約15分(約5km),「望湖台」バス停からすぐ",全12ヵ所　計364台（2015年9月現在）,,,,,,,,,,,,,,,,,,金沢市緑と花の課,076-220-2356,,,,,,,,https://www4.city.kanazawa.lg.jp/29004/park/park/utatsuyama/utatuyamaannai.html,,
170003,,JJ0000000146,石川県,卯辰山麓寺院群,ウタツサンロクジイングン,utatsusanrokujiingun,,172014,,石川県金沢市東山　ほか,石川県,金沢市,東山　ほか,,,36.575855,136.669229,,,,,,,,,卯辰山麓の傾斜地に広がる城下町の要所に形成された三寺院群のひとつで、藩政期からの細街路や街並みが今も色濃く残ります。寺院の数はおよそ50にものぼり、それぞれの歴史を持つ古刹には、金沢伝統工芸の祖やゆかりの人々の墓が置かれ、静かに時の流れを刻んでいます。国の重要伝統的建造物群保存地区に選定されています。,,"金沢駅から約10分(約3km)北陸自動車道金沢東ICから約15分(約4km),「橋場町」バス停下車",付近に東山観光駐車場、東山北観光駐車場、東山河畔観光駐車場有り,,,,,,,,,,,,,,,,,,金沢市観光政策課,076-220-2194,,,,,,,,http://www.kanazawa-kankoukyoukai.or.jp/course/temples/kokoro/,,
170003,,JJ0000000147,石川県,卯辰山天満宮,ウタツヤマテンマングウ,utatsuyamatemmangu,,172014,,石川県金沢市東御影町93,石川県,金沢市,東御影町,93,,36.569744,136.673489,,,,,,,,,　卯辰山天満宮は、卯辰山の中腹にあります。豊国神社、愛宕神社と並ぶ卯辰山三社の一つです。1866（慶応3）年、加賀藩14代藩主・前田慶寧が庶民の福利を図るため、卯辰山開拓時に、守護神として兼六園にあった竹沢御殿の天満宮を、この地に移しました。,,",",無料駐車場あり,,,,,,,,,,,,,,,,,,,--,,,,,,,,,,
170003,,JJ0000000148,石川県,卯辰山公園 花菖蒲園・花木園,ウタツヤマハナショウブエン・カボクエン,utatsuyamahanashobuen・kabokuen,,172014,,石川県金沢市東御影町,石川県,金沢市,東御影町,,,36.570601,136.672442,,,,,,,無料,,"花菖蒲やアジサイが美しい「花菖蒲園」。金沢市街を一望する卯辰山公園内にあり、晴れた日には日本海が見える望湖台からの眺望も人気。花菖蒲は約100種20万株、紫陽花は2,900株植えこまれています。ツツジの名所である「花木園」では、ツツジ12品種、約8000本が植えこまれており、4月下旬から5月中旬にかけて見頃を迎えます。",,"金沢駅から約15分(約5km)北陸自動車道金沢東ICから約15分(約5km),「豊国神社前」バス停から徒歩2分",花菖蒲園：11台　※卯辰山公園全体では全13か所、381台（2019年4月現在）,,,,,,,,,,,,,,,,,,金沢市緑と花の課,076-220-2356,,,,,,,,https://www4.city.kanazawa.lg.jp/29004/park/park/utatuyama.html,,
170003,,JJ0000000149,石川県,内浦総合運動公園,ウチウラソウゴウウンドウコウエン,uchiurasogoundokoen,,174637,,石川県鳳珠郡能登町字布浦拓20-4,石川県,能登町,石川県鳳珠郡能登町字布浦拓,20-4,,37.341339,137.250812,,,,9時00分から22時00分（4月から11月まで）			,,,年齢や人数、競技、施設により異なります（要問い合わせ）（クレジットカード不可）			,,"　能登町にあるスポーツの中心施設です。各種スポーツ施設をはじめ、主に会議で使用できる共同福祉施設、陶芸などに使われる他目的施設、遊具、池、遊歩道などがあり、町民の憩いの場になっています。時には、県内外の高校、大学の運動クラブが合宿もしています。施設概要　能登町営野球場:中央112メートル、両翼90メートル、観覧席あり　内浦陸上競技場:400メートル、トラック、第3種公認　能登町営相撲場:観覧席2,600席　内浦体育館:バレーボール3面、バスケットボール2面、バドミントン7面、トレーニング場あり　内浦第2体育館:柔道場、剣道場　能登町緑の健康広場ゲートボール場:ゲートボール1面　能登町営テニスコート:テニスコート4面　しおさい広場:運動広場、野外ステージ",,"のと里山海道能登空港ICより車で40分,",100台分あり			,,,,,,,,,,,,,,,,,,,0768-72-0200,,,,,,,,,,
170003,,JJ0000000150,石川県,うちうらビアパーク,ウチウラビアパーク,uchiurabiapaku,,174637,,石川県鳳珠郡能登町字立壁,石川県,能登町,石川県鳳珠郡能登町字立壁,,,37.338389,137.257324,,,,レストラン11時30分～22時00分,,,,,　美しい日本海の入江を望む能登内浦の高台にあり、様々な樹木や野鳥が自生する自然に恵まれた公園です。レンガ色の石畳が、海の青さや木々の緑とマッチして、ヨーロッパを思わせるようなすばらしい風景が広がっています。近くには地ビール工場を備えたレストラン「日本海倶楽部」やエミュー牧場などがあります。,,"のと里山海道能登空港ICより50分九里川尻駅から徒歩10分,",あり,,,,,,,,,,,,,,,,,,日本海倶楽部,0768-72-8181,,,,,,,,,,
170003,,JJ0000000151,石川県,内灘大橋 / サンセットブリッジ内灘,ウチナダオオハシ,uchinadaohashi,,173657,,石川県河北郡内灘町大学1丁目～宮坂,石川県,内灘町,石川県河北郡内灘町大学,1丁目～宮坂,,36.660493,136.650953,,,,,,,,,全長344メートルの斜張橋という優美な姿で、サンセットブリッジ内灘（内灘大橋）は町のランドマークとして観光名所となっています。日中や夕暮れ時の姿も見応えがあり、日没からはライトアップ（時間は下記公式サイト参照）もされ、周囲をロマンチックな雰囲気に包みこみます。その美しい景観がデートスポットにふさわしいとして、「恋人の聖地プロジェクト」で全国有数のラブパワースポットとして選ばれています。ムード満点、ロマンチックな景観は愛の告白にぴったり！ライトアップされた橋を背景に思いを伝えてみてはいかがですか？「内灘町総合公園」の見晴らし台にある「幸せへの鐘」からの眺めは最高！360度見渡せるのでサンセットブリッジはもちろん、河北潟や晴れた日には立山連峰や白山まで眺めることができます。通称「ダブルハート」のオブジェの前で記念撮影して、恋みくじハウスで二人の愛を占ってみるのも楽しい時間の過ごし方です。地元産の野菜からお土産までそろう道の駅「内灘サンセットパーク」は橋を見るのにぴったりの場所。食事もできるので一休みしつつゆっくりと橋を眺めるのもおすすめです。,,"北陸自動車道金沢東ICから15分、金沢西ICから20分,北鉄浅野川線内灘駅より金沢医科大行きバス停終点から徒歩1分",有り（道の駅内灘サンセットパーク駐車場、及びその対岸の交差点「サンセットブリッジ北」角）,,,,,,,,,,,,,,,,,,内灘町都市建設課,076-286-6710,,,,,,,,http://www.town.uchinada.lg.jp/webapps/www/info/detail.jsp?id=85,,
170003,,JJ0000000152,石川県,内灘海水浴場　※2022年度 海水浴場の開設中止,ウチナダカイスイヨクジョウ　,uchinadakaisuiyokujo　,,173657,,石川県河北郡内灘町千鳥台4丁目153番地先,石川県,内灘町,石川県河北郡内灘町千鳥台,4丁目153番地先,,36.642133,136.623605,,,,※新型コロナウイルス感染拡大防止の為、2022年度は開設を中止します。海開き期間：7月中旬～8月中旬　9時00分～17時00分上記期間内であっても、天候等により中止する場合がありますので係員の指導に必ず従ってください。,,,無料,,※新型コロナウイルス感染拡大防止のため、2022年度は海水浴場の開設を中止いたします。日本海に沿って南北約９ｋｍに伸びる内灘海岸では、夏期には海水浴場が開設されます。その中でもっとも大きい内灘海水浴場は、町内外はもとより県外からもたくさんの海水浴客が訪れ賑わいます。※８月１０日頃よりクラゲが発生しますので、それ以前に訪れることをおすすめします。また、周辺の海岸では、毎年梅雨入り前からウィンドサーフィンなどのマリンスポーツが盛んに行われ、イベントも開催されます。,,"北陸自動車道金沢東ICから20分,徒歩：北陸鉄道内灘駅から徒歩15分バス：北陸鉄道内灘駅から内灘町コミュニティバス全町ルートに乗車　「コンフォモール内灘」で下車。所要時間7分",無し（※砂浜に車で進入する場合は、タイヤが砂にはまらないようにご注意ください。）海水浴場開設期間中は駐車場あり。（100台収容可）,,,,,,,,,,,,,,,,,,内灘町地域産業振興課,076-286-6708,,,,,,,,,,
170003,,JJ0000000153,石川県,内灘砂丘,ウチナダサキュウ,uchinadasakyu,,173657,,石川県河北郡内灘町向粟崎～宮坂、大根布,石川県,内灘町,石川県河北郡内灘町向粟崎～宮坂、大根布,,,36.645154,136.627382,,,,,,,,,≪広大な砂丘≫金沢市粟崎町から河北郡内灘町を経てかほく市（旧同郡宇ノ気町）に至る海岸線に発達した砂丘で、幅約1?、平均標高約20.0mの横列砂丘。ニセアカシア・クロマツ・ネムノキなどが砂防のため植栽され、後浜にはハマナスやイソスミレなど貴重な海浜植物もある。また、砂丘の一部は畑や水田としても利用され、宇ノ気町大崎には全国でもユニークな県立砂丘地農業試験場がある。 ≪砂丘復元活動≫かつての起伏があり、風紋が刻まれた砂丘を復元するため、平成20年よりボランティア団体による竹垣づくりが行われている。（※平成24年度をもって活動を休止しています。）,,",北鉄浅野川線内灘駅から徒歩約20分",無し（※砂浜に車で進入する際は、タイヤが砂にはまらないようご注意ください。）,,,,,,,,,,,,,,,,,,内灘町地域産業振興課,076-286-6708,,,,,,,,,,
170003,,JJ0000000154,石川県,内灘町総合公園,ウチナダマチソウゴウコウエン,uchinadamachisogokoen,,173657,,石川県河北郡内灘町宮坂に3　他,石川県,内灘町,石川県河北郡内灘町宮坂に,3　他,,36.663445,136.652327,,,,各施設によって異なる,,,各施設によって異なる,,"サッカー場（日本サッカー協会公認）、テニスコート、野球場、パークゴルフ場、室内温水プール等を完備した複合スポーツゾーン。また、県内唯一の自転車競技場があり、選手はもとよりサイクリングを楽しむ親子で賑わっている。その他、内灘町を一望できる大展望台や内灘町の歴史や文化がわかる資料館「風と砂の館」、お湯につかりながら河北潟、白山館山連邦を眺められる展望温泉「ほのぼの湯」もお勧め。家族づれで一日楽しめるスポットとなっている。公園内には2018年4月にリニューアルした公共の宿「内灘町サイクリングターミナル」もある。≪施設概要≫■内灘町サイクリングターミナル収容人員80人。和室、大広間、洋室、会議室のほか屋外にはバーベキュー広場もある。（バーベキューのみの利用可）。■内灘町歴史民俗資料館「風と砂の館」郷土の民俗資料（漁村内灘をしのぶ資料）・凧の展示・文化財を展示。■野球場21,500?、夜間照明、観覧席900人。■屋内温水プール25m7コース、トレーニング室、幼児プール（スライダー）、採暖室完備。■内灘町サッカー競技場日本サッカー協会公認。一般用サッカーコート（105m×68m）1面、少年用サッカーコート（68m×50m）2面。■テニスコート砂入り人工芝コート8面、夜間照明、クラブハウス完備。■石川県立自転車競技場変速自転車22台、子供補助付15台、子供補助無10台、400mピスト。■パークゴルフ場芝生面積6,170?。■展望台内灘砂丘の頂から360度の眺望が楽しめるスポット。標高64.46mで日本海、河北潟、遠くは北アルプスが一望できる。",,",北鉄浅野川線内灘駅より・北鉄バス白帆台ニュータウンゆき乗車→総合公園下車・内灘町コミュニティバス「なだバスナディ南部ルート」→総合公園下車",有り,,,,,,,,,,,,,,,,,,内灘町都市建設課,076-286-6710,,,,,,,,,,
170003,,JJ0000000155,石川県,内灘町総合グラウンド,ウチナダマチソウゴウグラウンド,uchinadamachisogoguraundo,,173657,,石川県河北郡内灘町鶴ケ丘2丁目743 他,石川県,内灘町,石川県河北郡内灘町鶴ケ丘,2丁目743 他,,36.644736,136.645755,,,,9時00分～22時00分（日曜日、祝日:18時00分まで）,,,要予約,,≪施設概要≫４００ｍトラック（陸上・サッカー）、夜間照明,,",北鉄浅野川線内灘駅→なだバスナディ南部ルート（約８分）→内灘中学校前下車すぐ",約30台,,,,,,,,,,,,,,,,,,,076-286-1231,,,,,,,,,,
170003,,JJ0000000156,石川県,内灘町歴史民俗資料館「風と砂の館」,ウチナダマチレキシミンゾクシリョウカン「カゼトスナノヤカタ」,uchinadamachirekishiminzokushiryokan「kazetosunanoyakata」,,173657,,石川県河北郡内灘町字宮坂に455番地,石川県,内灘町,石川県河北郡内灘町字宮坂に,455番地,,36.662632,136.65329,,,,午前１０時～午後５時,,,一般200円（※20名以上の団体で1人150円）高校生以下無料,,内灘町の歴史や資料、凧や文化財を展示している施設、歴史民俗資料館「風と砂の館」。第一から第四まで分かれた展示室は、粟ヶ崎遊園コーナー・内灘闘争コーナー・凧コーナー・内灘の民俗と歴史コーナーと、内容盛りだくさん。隣接の茶室「惜亭」の見学も出来ます。,,"北陸自動車道金沢東ICから車20分、金沢西ICから車で35分,内灘駅より北鉄バス白帆台ニュータウンゆき→内灘町福祉センター下車なだバスナディ南部ルート→福祉センター下車",有り,,,,,,,,,,,,,,,,,,,076-286-1189,,,,,,,,,,
170003,,JJ0000000157,石川県,宇宙科学博物館コスモアイル羽咋,ウチュウカガクハクブツカンコスモアイルハクイ,uchukagakuhakubutsukankosumoairuhakui,,172073,,石川県羽咋市鶴多町免田25,石川県,羽咋市,鶴多町免田,25,,36.898045,136.788093,,,,8時30分～17時00分（入館は16時30分まで）,,,2階展示室：大人500円、小中学生250円3階コスモシアター：大人500円、小中学生250円セット料金（展示室+コスモシアター）：大人900円、小中学生450円※団体（15名以上は2割引）,,"<strong>【UFO伝説のある羽咋市】</strong><strong><font color=""#0000FF"">NASA特別協力</font></strong>の宇宙科学博物館！　<span style=""border-bottom: solid 2px #00CCFF;"">実際に宇宙開発のために製作された宇宙船や衛生、本物の隕石などを多数展示！</span>　つかむと舌が飛び出る宇宙人（グッズ）などおもしろいグッズも沢山あります！　<span style=""border-bottom: solid 2px #00CCFF;"">撮影スポットもある</span>のでぜひご家族、友人と楽しんでみてはいかがでしょうか。【UFOのまち羽咋市】　羽咋市には「そうはちぼん伝説」という言い伝えがあります。　江戸時代の頃、“そうはちぼん”と呼ばれる飛行物体が頻繁に目撃されていたと伝えられています。　そうはちぼんとはシンバルのような形をした仏具のことで、形がUFOに酷似している事からUFOのことではないかと言われ羽咋市は「UFOのまち」と言われるようになりました。【実際に使われた機材などを展示】　「宇宙科学展示室」には世界最大・最古の隕石跡として知られている「フレデフォートクレーター」の隕石が展示してあり、実際に触ることができます。　フレデフォートクレーターは、直径10から12kmの小惑星が速度約20km/sで衝突し生成されたと考えられ、隕石の衝突跡の直径は約190kmと世界最大です。　その他にもアポロ17号の船員が持ち帰った本物の「月の土」、本物の月面探索で使用された機体のバックアップ機「ルナ24号月面着陸船（旧ソ連）」、実際に宇宙から帰還してきたカプセル「ヴォストーク帰還用宇宙カプセル（旧ソ連）」などが展示してあります。【ドームいっぱいに広がる3D映像】　「コスモシアター」ではプラネタリウムのドーム型天井で、臨場感たっぷりの迫力ある映像を楽しめます。　世界各地で行われているフルドームフェスティバルで、最優秀賞・監督賞・観客賞など数々の賞を受けている「Dream to Fly」。その他にも「宇宙への第一歩」や「オデッセイ ～果てしなく美しい宇宙～」など宇宙、星座、科学などをテーマにした作品が沢山あります！【つかむと舌が飛び出る宇宙人（グッズ）】　館内をぐるりと回った後は宇宙みやげ。ショップでは宇宙に関連して様々なグッズを取り揃えています。　宇宙にちなんだTシャツやハンカチ、キーホルダー、宇宙食まであります。その他にもおもしろいグッズが沢山ありますのでぜひ手にとってごらん下さい。 ",,"のと里山海道千里浜ICから車で10分,JR七尾線「羽咋駅」東口から徒歩10分（1キロメートル）",無料駐車場有り（バス5台・普通車200台）,,,,,,,,,,,,,,,,,,,0767-22-9888,,,,,,,,http://www.hakui.ne.jp/ufo/,,
170003,,JJ0000000158,石川県,鵜浦海水浴場【2022年度開設中止】,ウノウラカイスイヨクジョウ,unorakaisuiyokujo,,172022,,石川県七尾市鵜浦町地内　鵜の浜漁港内,石川県,七尾市,鵜浦町地内　鵜の浜漁港内,,,37.09976,137.049411,,,,7月中旬～8月中旬,,,,,※2022年は開設中止となりました。鵜祭りなどで知られる崎山半島の先端にある海水浴場です。近くには、観音島や崎山灯台といった名所もあります。,,"のと里山海道徳田大津ICから30分,鹿渡島バス停すぐ",有り,,,,,,,,,,,,,,,,,,七尾市交流推進課,0767-53-8424,,,,,,,,,,
170003,,JJ0000000159,石川県,姥ヶ滝,ウバガタキ,ubagataki,,172103,,石川県白山市中宮（白山白川郷ホワイトロード内）,石川県,白山市,中宮（白山白川郷ホワイトロード内）,,,36.25492708,136.7986663,,,,6月上旬～11月中旬　※白山白川郷ホワイトロード供用期間中,,,"白山白川郷ホワイトロードの利用料金※参考(片道料金)普通車／1,700円、軽自動車／1,400円マイクロバス／5,000円、大型バス等11,000円",,滝が岩肌に沿い数十丈の流れとなって落ちる様が、まるで白髪の老婆が髪を振り乱したように見えることから「姥ヶ滝」の名がついたと言われています。白山白川郷ホワイトロード内にある蛇谷園地駐車場からブナやミズナラの天然林が広がる蛇谷園地を森林浴を楽しみながら抜け、蛇谷川沿いの遊歩道を20分ほど歩くと目の前に迫力ある姥ヶ滝が現れます。軽いトレッキング気分を味わった後は、目の前にある「親谷の湯」につかりながら色づいた木々の葉と青空のコントラストと滝の流れを楽しめます。時間を忘れそうになるぐらいに心身ともに癒されます。ただし、時間を忘れてはいけません。白山白川郷ホワイトロードには通行可能な時間に制限があります。閉門時間に間に合うように出発しましょう。姥ヶ滝は、1990年に「日本の滝百選」の一つに選定されています。,,"金沢駅から中宮料金所まで約90分、中宮料金所から蛇谷園地駐車場まで約10分　計約100分蛇谷園地駐車場から姥ヶ滝までは徒歩で約20分,",,,,,,,,,,,,,,,,,,,白山林道石川管理事務所,076-256-7341,,,,,,,,http://hs-whiteroad.jp/,,
170003,,JJ0000000160,石川県,雨宝院,ウホウイン,uhoin,,172014,,石川県金沢市千日町1-3,石川県,金沢市,千日町,1-3,,36.558558,136.649901,,,,9時00分～17時00分,,,陳列館見学:大人300円、中高生250円、団体10人以上250円（利用可能クレジットカード：無し）,,天平8年(736)、白山開山の泰澄大師が創建。その後文禄2年(1593)、雄勢上人により再興されました。犀星の作品によく登場するあんずの樹もここで見ることができます。境内には文政の飢饉の時、迷子の救済のために建てられた迷子石があり、「まよひ子ここへもて来べし、ここへたずぬべし」と刻まれています。また、寺には犀星ゆかりの品が展示されています。,,",片町バス停から徒歩5分",4～5台,,,,,,,,,,,,,,,,,,,076-241-5646,,,,,,,,,,
170003,,JJ0000000161,石川県,うみっこらんど七塚　海と渚の博物館,ウミッコランドナナツカ　ウミトナギサノハクブツカン,umikkorandonanatsuka　umitonagisanohakubutsukan,,172090,,石川県かほく市白尾ム1-3,石川県,かほく市,白尾ム,1-3,,36.714729,136.682898,,,,9時00分～17時00分,,,通常料金:大人200円 高校生以下100円 幼児無料（利用可能クレジットカード：無し）,,"のと里山海道白尾IC、遠浅の海岸に隣接する自然体感施設です。オートキャンプ場を併設。海と渚の博物館では、昭和初期から30年代の能登の漁村を再現しており、ゲーム感覚で「櫓こぎ」のシミュレーションが楽しめます。収蔵品は3,000点を超えています。",,"のと里山海道白尾ICから車で約1分、北陸自動車道金沢森本ICより15分,JR宇野気駅から徒歩35分　",80台,,,,,,,,,,,,,,,,,,,076-283-8880,,,,,,,,http://www.city.kahoku.ishikawa.jp/www/01/103/006/000/index_8309.html,,
170003,,JJ0000000162,石川県,海の駅　六銘館,ウミノエキ　ロクメイカン,uminoeki　rokumeikan,,172049,,石川県輪島市マリンタウン1-1,石川県,輪島市,マリンタウン,1-1,,37.396755,136.904894,,,,8:00～12:00（店舗により異なる）※新型コロナウイルス感染対策に伴い営業時間短縮となっている場合がございます。,,,各種クレジットカード利用可,,マリンタウン駐車場内にある6つの店が集まった物産館です。,,"・金沢からのと里山海道(のと里山空港IC下車)経由で約2時間・のと里山空港ICから約25分※マリンタウン駐車場をご利用ください(午前中有料),・金沢から輪島特急バス乗車約2時間30分「輪島マリンタウン」下車			・道の駅輪島（ふらっと訪夢）から徒歩約20分",200台,,,,,,,,,,,,,,,,,,,0768-23-0234,,,,,,,,,,
170003,,JJ0000000163,石川県,梅ノ橋,ウメノハシ,umenohashi,,172014,,石川県金沢市東山付近,石川県,金沢市,東山付近,,,36.570756,136.666569,,,,,,,,,犀川の桜橋に対してその名がついたともいわれています。付近は泉鏡花の出世作「義血侠血」の舞台にもなっており、作品にちなんだ滝の白糸碑やヒロイン滝の白糸をかたどった像が建てられています。橋は日没とともにライトアップされます。,,"金沢駅から約10分(約3km)北陸自動車道金沢東ICから約15分(約4km),「橋場町」バス停から徒歩8分",付近に東山観光駐車場、東山北観光駐車場、東山河畔観光駐車場有り,,,,,,,,,,,,,,,,,,金沢市観光政策課,076-220-2194,,,,,,,,,,
170003,,JJ0000000164,石川県,漆陶舗あらき,ウルシトウホアラキ,urushitohoaraki,,172022,,石川県七尾市一本杉町4番地,石川県,七尾市,一本杉町,4番地,,37.046132,136.964368,,,,9時00分～18時00分,,,"沈金体験1,100円～（材料費込み）",,　嘉永年間に創業した老舗漆陶舗あらきでは、伝統工芸である輪島塗の沈金を気軽に体験することができます。自分で考えた絵柄を、好みの箸や銘々皿などの商品に絵付けをすることができます。世界に1つだけのオリジナル作品を作ってみませんか？,,",JR七尾駅から徒歩5分（一本杉通り）",6台,,,,,,,,,,,,,,,,,,,0767-52-4141,,,,,,,,http://www.nanao-araki.com/,,
170003,,JJ0000000165,石川県,うるしの器　あさだ,ウルシノウツワ　アサダ,urushinotsuwa　asada,,172065,,石川県加賀市山中温泉菅谷町ハ215,石川県,加賀市,山中温泉菅谷町ハ,215,,36.230694,136.36341,,,,9時00分～17時00分,,,"≪見学≫無料≪体験≫皿・箸　2,000円、お椀　3,000円（送料、消費税別）",, 山中漆器の製造販売をしています。生活の中で身近に使える山中漆器を提案しています。 山中伝統の木地（ろくろ挽）から漆を塗る作業までこちらの工房で行っています。気軽に入れる店内には国産の木にこだわった漆器類が並んでいます。漆器の伝統を受け継ぎながらもカジュアルな作品が多いのが特長です。工房の見学、うるし絵付（蒔絵）体験もできます。平日であれば漆を塗っている工房も見学できます。また、漆で絵を描く体験は、職人さながらに色とりどりの漆で好きな絵や字を書いたり金粉を散らしたりして楽しむことができます。,,"北陸自動車道　加賀ICから約14.1km,JR加賀温泉駅から加賀周遊バス　キャンバス山まわり線　→　19 山中温泉 菊の湯･山中座バス停から約2.3kmJR加賀温泉駅から北鉄加賀バス　温泉山中線（2番のりば）で約35分　→　山中温泉バスターミナルバス停から約2.7kmJR加賀温泉駅から北鉄加賀バス　温泉山中線 栢野行き（2番のりば）で約40分　→　平岩橋バス停から約150m",7台,,,,,,,,,,,,,,,,,,,0761-78-4200,,,,,,,,http://www.uruwashikki.com,,
170003,,JJ0000000166,石川県,蝦夷穴歴史センター,エゾアナレキシセンター,ezoanarekishisenta,,172022,,石川県七尾市能登島須曽町タ部21-5,石川県,七尾市,能登島須曽町タ部,21-5,,37.108415,136.968435,,,,※現在休館中です。,,,,,　須曽蝦夷穴古墳（すそえぞあなこふん）から出土した須恵器（すえき）や大刀、鉄鏃（てつぞく）など、能登島の遺跡から見つかった考古資料を大型パネルで解説しています。昭和初期に七尾湾で活躍した「五枚舟」と呼ばれる伝馬舟（てんまぶね）を復元したものや、漁具なども展示しています。※現在休館中です。,,",JR和倉温泉駅から能登島交通バスに乗り（約10分）須曽で下車後、徒歩で約20分",20台,,,,,,,,,,,,,,,,,,,0767-53-8437,,,,,,,,,,
170003,,JJ0000000167,石川県,江沼神社,エヌマジンジャ,enumajinja,,172065,,石川県加賀市大聖寺八間道55,石川県,加賀市,大聖寺八間道,55,,36.309156,136.307748,,,,,,,無料（境内見学自由）,,　江沼神社の創建は1704（宝永元）年といわれ、大聖寺藩祖前田利治と前田家ゆかりの菅原道真が祀（まつ）られています。　境内の庭園は1709（宝永6）年に、隣接する長流亭とともに作庭されたものです。兼六園の影響を受けた池泉廻遊式武家庭園で、ひさご池や、中島にかかる八ッ橋、石組の間からの湧水などが見所です。　　1960（昭和35）年に加賀市指定名勝となりました。前田家ゆかりの三天神の一社として入試シーズンには受験生でにぎわい、11月の紅葉時には多くの市民が散策します。三社参りの風習でも知られ、正月は参拝者が大勢訪れます。,,"北陸自動車道　加賀ICから約3.7km,JR加賀温泉駅から加賀周遊バス　キャンバス加賀越前線　→　33 深田久弥山の文化館・長流亭バス停から約350mJR加賀温泉駅から普通列車で4分（福井方面へ1駅）　→　JR大聖寺駅から約1.5km",,,,,,,,,,,,,,,,,,,,0761-72-0551,,,,,,,,,,
170003,,JJ0000000168,石川県,株式会社江端織ネーム,エバタオリネーム,ebataorinemu,,172031,,石川県小松市日末町い85,石川県,小松市,日末町い,85,,36.379104,136.418011,,,,,,,,,小松市は洋服やシャツなどに欠かせない織ネーム(マーク)の主要産地です。小松地方では古くから広巾紋織りが盛んに行われており、その技術が織マーク産地として発展するきっかけとなりました。生産量は福井県丸岡町に次いで全国2位のシェアを誇っています。江端織ネームでは、細巾シャットル織機17台を使って、衣料品、靴、鞄などにつける織ネームを製造しています。近年は織機の大半がコンピュータ制御となり、織布、樹脂加工、検品、カットなどの作業が行われています。細巾織ネームの製造工程全般が見学できます。,,"北陸自動車道小松ICから車で10分,",有,,,,,,,,,,,,,,,,,,,0761-44-8061,,,,,,,,,,
170003,,JJ0000000169,石川県,ANAクラウンプラザホテル金沢,エーエヌエークラウンプラザホテルカナザワ,enuekuraumpurazahoterukanazawa,,172014,,石川県金沢市昭和町16-3,石川県,金沢市,昭和町,16-3,,36.576688,136.648675,,,,チェックイン 14時00分/アウト 11時00分,,,変動制（ベストフレキシブルレート）（利用可能クレジットカード：VISA、Master、JCB、AMEX、UC、Diners）,,　金沢の玄関口、金沢駅兼六園口（東口）より徒歩1分と、観光やビジネスにも最適なロケーションです。6つのレストラン＆バーでは、北陸の山海の幸を取り入れたバラエティ豊かなメニューをお楽しみいただけます。,,",金沢駅兼六園口（東口）より徒歩1分小松空港からバスまたは車で40分、北陸自動車道金沢東IC 10分／金沢西東IC 15分	","59台（有料：宿泊客1泊1台1,500円）",,,,,,,,,,,,,,,,,,,076-224-6111,,,,,,,,http://www.anacrowneplaza-kanazawa.jp,,
170003,,JJ0000000170,石川県,近江町市場 ,オウミチョウイチバ,omichoichiba,,172014,,石川県金沢市上近江町50,石川県,金沢市,上近江町,50,,36.571411,136.656452,,,,生鮮品店9時00分～17時00分.　飲食店7時00分～23時00分（概ね11時00分～21時00分の営業店が多い）,,,無料,,古くより繁華街として栄えた武蔵ヶ辻にある近江町市場は、1721年から加賀藩前田家の御膳所として、また市民の台所としてもにぎわい、約300年間、金沢の人々の生活を支えてきました。狭い小路を挟んで並ぶ約170店の店先で、日本海の新鮮な魚介や地元産の野菜、果物を中心に、漬け物、菓子類、生花、衣類など、さまざまな商品が威勢の良いやりとりの中で売り買いされ、市場はいつも活気に満ち溢れています。新鮮な魚介類やコロッケをはじめとする揚げ物など、店頭ですぐに食べることができるお店もあります。海鮮丼などの人気のお店は行列ができることも。早い時間に行くのがおすすめです。市場の一角にある「近江町いちば館」は1階の青果や鮮魚、2階の飲食店街をはじめドラッグストアや日用品まで揃う複合施設で、「金沢市近江町交流プラザ」なども入っています。金沢市民の台所で地元の人との交流を楽しんでみてはいかがですか？,,"北陸自動車道金沢西ICから20分,金沢駅東口からバスターミナル6番～9番北陸鉄道バスに乗車し、2停留所目の『武藏ヶ辻・近江町市場』下車。降りたところが『近江町市場』。",近江町パーキング（十間町）、近江町市場駐車場（国道159号から入庫）、近江町いちば館駐車場(国道159号橋場町方向からのみ進入可）※買い物金額にかかわらず1時間半までは割引有。,,,,,,,,,,,,,,,,,,,076-231-1462,,,,,,,,http://ohmicho-ichiba.com/,,
170003,,JJ0000000171,石川県,大嵐山のみずばしょう,オオアラシヤマノミズバショウ,oarashiyamanomizubasho,,172103,,石川県白山市白峰,石川県,白山市,白峰,,,36.193395,136.652026,,,,,,,,,"ちょっとしたハイキングに適している大嵐山では、4月下旬～5月上旬にかけて雪解けの湿地から約30,000株のミズバショウが花を咲かせます。また、ブナの原生林も美しく、夏や秋もトレッキング・森林浴には最高の山です。",,"JR金沢駅から車で100分,",あり,,,,,,,,,,,,,,,,,,白峰観光協会案内所,076-259-2721,,,,,,,,http://shiramine.info/guide/index.html,,
170003,,JJ0000000172,石川県,大倉岳高原スキー場,オオクラダケコウゲンスキージョウ,okuradakekogensukijo,,172031,,石川県小松市尾小屋町レ41,石川県,小松市,尾小屋町レ,41,,36.28373614,136.5388255,,,,2022年12月27日～【12月～2月】火曜日～土曜日 8：30～21：00日曜日 8：30～17：00　　　　　　　　【3月】火曜日～金曜日16：00～21：00土曜日 8：30～21：00日曜日 8：30～17：00【休業日】月曜日（祝日の場合、年末年始（12/29~1/3）に当たる場合は変更となります）,,,"1回券250円・11回券2,600円・1日券（高校生以上）3,700円・半日券2,100円・ナイター券2,100円・4時間券2,100円",,"白山を仰ぐ大倉岳の山麓一帯で、加賀平野から日本海まで望める雄大な展望が楽しめます。小松市内からほど近い場所にあるスキー場で、日本海を臨むダウンヒルコースもあり、気持ちよくすべることができます。冬はスキー、スノーボード、緑の季節にはパラグライダー、秋にはコスモスが楽しめます。その他のスキー場の情報をまとめた特集はこちら！！＞＞<a href=""https://www.hot-ishikawa.jp/feature/top/skii"">石川県のスキー場特集！</a>",,",",490台（無料）,,,,,,,,,,,,,,,,,,,0761-67-1426,,,,,,,,https://komatsu-ccf.com/sports/ookuradake_kogen_ski_resort/,,
170003,,JJ0000000173,石川県,大倉岳高原,オオクラダケコウゲン,okuradakekogen,,172031,,石川県小松市尾小屋町,石川県,小松市,尾小屋町,,,36.28459684,136.548676,,,,,,,,,標高650メートルの大倉岳高原は、冬はスキー場として営業しており、秋には約40万本ものコスモスがゲレンデに広がります。一面に広がるコスモスは、見ごたえ抜群。,,"JR小松駅から車で25分小松ICから車で30分小松空港から車で35分,",あり,,,,,,,,,,,,,,,,,,大倉岳高原スキー場,0761-67-1426,,,,,,,,https://komatsu-ccf.com/navi/?mode=office&sub_mode=top&office_no=2,,
170003,,JJ0000000174,石川県,大桑簡易グラウンド,オオクワカンイグラウンド,okuwakaniguraundo,,172014,,石川県金沢市大桑町地内,石川県,金沢市,大桑町地内,,,36.531373,136.6852,,,,日の出～日没（3月1日～11月30日まで）,,,一般1時間:510円、高校生1時間:200円、中学生以下:無料,,　野球場3面、ソフトボール場1面を完備しています。,,",大道割バス停から徒歩5分",有り,,,,,,,,,,,,,,,,,,,076-225-1366,,,,,,,,,,
170003,,JJ0000000175,石川県,馬緤海岸,マツナギカイガン,matsunagikaigan,,172057,,石川県珠洲市馬緤町,石川県,珠洲市,馬緤町,,,37.508265,137.215252,,,,,,,,,馬緤（まつなぎ）の地名は、源義経が兄頼朝の怒りをかって、奥州の平泉へと逃れる途中にこの地へ立寄り、その際に馬を繋いだところから名付けられたと伝えられています。,,"のと里山空港より車で60分,北鉄奥能登バス 大谷線「泊」下車、徒歩2分",なし,,,,,,,,,,,,,,,,,,珠洲市観光交流課   ,0768-82-7776,,,,,,,,,,
170003,,JJ0000000176,石川県,大谷峠,オオタニトウゲ,otanitoge,,172057,,石川県珠洲市大谷町,石川県,珠洲市,大谷町,,,37.4827364,137.1994691,,,,,,,,,　飯田、大谷峠、大谷間は、奥能登の外浦と内浦を結ぶ、唯一のスカイラインとして知られています。　なだらかな稜線（りょうせん）は、四季折々の山岳風景を映し出します。特に、紅葉に彩られた秋の偉観と、深雪におおわれた稜線のすがすがしい美しさは格別です。　峠の近くには「大納言平時忠卿および其の一族の墳」と、末裔の一門則貞家があります。,,"のと里山空港から車で60分,北鉄奥能登バス 大谷線「則貞」下車すぐ   ",30台（無料）			,,,,,,,,,,,,,,,,,,珠洲市観光交流課   ,0768-82-7776,,,,,,,,,,
170003,,JJ0000000177,石川県,太田の大トチノキ,オオタノオオトチノキ,otanootochinoki,,172103,,石川県白山市白峰大道谷,石川県,白山市,白峰大道谷,,,36.1384141,136.6117776,,,,,,,,,　目通り幹周（目の高さで図った幹周り）13メートル、高さ25メートルであり、国内のトチノキの中では幹周において最大級の大きさです。国の天然記念物に指定されています。　その巨大な姿を眺めていると、白山の自然のふところの深さを感じることができます。秋には、自然観察会が開催されます。,,"白山ICから国道157号線を南へ80分金沢駅から90分、松任駅から80分、美川駅から80分、鶴来駅から60分,加賀白山バス白峰線、白山線バス乗車、白峰停留所下車",,,,,,,,,,,,,,,,,,,白峰観光協会,076-259-2721,,,,,,,,,,
170003,,JJ0000000178,石川県,大伴家持歌碑（珠洲市春日神社境内）,オオトモノヤカモチカヒ（スズシカスガジンジャケイダイ）,otomonoyakamochikahi（suzushikasugajinjakeidai）,,172057,,石川県珠洲市飯田町　春日神社境内,石川県,珠洲市,飯田町　春日神社境内,,,37.43766681,137.2601863,,,,,,,,,　748（天平20）年、万葉の歌人大伴家持が越中の国司の身で能登を巡った折、珠洲から船出の際に詠んだと言われる歌の碑です。,,"のと里山空港から車で50分,北鉄奥能登バス 「珠洲市役所前」下車、徒歩5分",5台（無料）,,,,,,,,,,,,,,,,,,珠洲市教育委員会　文化財室,0768-82-6200,,,,,,,,,,
170003,,JJ0000000179,石川県,大伴家持歌碑（羽咋市千里浜町）,オオトモノヤカモチカヒ（ハクイシチリハママチ）,otomonoyakamochikahi（hakuishichirihamamachi）,,172073,,石川県羽咋市千里浜町,石川県,羽咋市,千里浜町,,,36.894156,136.766428,,,,,,,,,　歌碑には「之乎路（しおじ）から　直越（ただこ）え来れば　羽咋の海　朝凪（あさなぎ）したり　船梶（ふねかじ）もがも」と刻まれています。これは748（天平20）年、万葉の歌人大伴家持が越中の国司の身で能登をめぐった際、気多大社におもむく時に作った歌です。家持はこの地で、他数首を残しています。　歌碑の独特の形状は、家持が歌に詠んだ「船梶」をデザインしたもので、気多大社に向けて建てられています。,,",JR羽咋駅から徒歩30分",,,,,,,,,,,,,,,,,,,,0767-22-1118,,,,,,,,http://www.city.hakui.ishikawa.jp/sypher/www/info/detail.jsp?id=2257,,
170003,,JJ0000000180,石川県,大野灯台,オオノトウダイ,onotodai,,172014,,石川県金沢市大野町4丁目,石川県,金沢市,大野町,4丁目,,36.61607,136.602877,,,,,,,,,　1879（明治11）年大野町の住人、浅勘七が私設で灯台を建てたのが始まりといわれています。1934（昭和9）年公設標識と管理され、1951（同26）年に現在の姿となりました。高さ26.4メートル（海水面より34.3メートル）、130万カンデラ（光の単位）で、金沢港に入港する船舶をはじめ、沖を航行する船を導いています。,,",「からくり記念館」バス停から徒歩約10分",無し,,,,,,,,,,,,,,,,,,,--,,,,,,,,,,
170003,,JJ0000000181,石川県,大堰宮公園,オオヒノミヤコウエン,ohinomiyakoen,,172065,,石川県加賀市保賀町イ6,石川県,加賀市,保賀町イ,6,,36.286129,136.351784,,,,,,,,,八重・九重と見事な花を咲かせるさまが美しく、古くから市民・温泉客に親しまれてきたサクラの名所。桜の開花情報のスポットにもなっています。そばには大聖寺川が流れ、川沿いを散策できたり、サイクリングロードもあります。,,"JR加賀温泉駅から約4.9Km北陸自動車道片山津ICから約11.0Km北陸自動車道加賀ICから約7.5Km,JR加賀温泉駅から加賀周遊バス　キャンバス山まわり　→　16 山代温泉桔梗丘バス停から約350m（1日３便）JR加賀温泉駅から北鉄加賀バス　温泉山中線（2番のりば）で約15分　→　山代温泉西口バス停から約650m",,,,,,,,,,,,,,,,,,,山代温泉観光協会,0761-77-1144,,,,,,,,,,
170003,,JJ0000000182,石川県,大樋美術館・十一代大樋長左衛門窯,オオヒビジュツカン,ohibijutsukan,,172014,,石川県金沢市橋場町2-17,石川県,金沢市,橋場町,2-17,,36.56992853,136.6645191,,,,9時00分～17時00分,,,"≪個人≫一般：700円(呈茶付1,500円)小・中学生：500円(呈茶付1,300円)≪団体(20人以上)≫一般：600円(呈茶付1,400円)小・中学生：400円(呈茶付1,200円)≪呈茶券≫一般：1,000円小・中学生：700円",,　寛文六（一六六六）年、加賀藩主五代前田綱紀候は、茶道による文化育成のため裏千家始祖となる四代仙叟宗室を京都より招きました。その際、仙叟は土師長左衛門を茶碗造り師として同じく金沢へ同道させました。長左衛門は金沢の東郊大樋村に開窯し独特の釉薬を用い、茶碗、水指、香合などを仙叟の指導のもとに茶の湯の思想を造形化し、大樋焼と称されるようになりました。　　　　　　　　　また、長左衛門は十年間、京都楽家四代一入（いちにゅう）の高弟であったため、しっかりとした楽焼の技術を持ち、伝統である侘茶の精神を作風にロクロはいっさい使わず手捏で成形し、削りながらひとつひとつを創り上げ、以来、各代が日本の茶道文化とともに伝統と創造を踏襲し、今日に至っています。 　平成二年には、歴代の作品と茶道文化を紹介するため、邸内に大樋美術館が開館されました。また、江戸期に建てられた当家は武家屋敷であり、金沢指定保存建造物となっています。邸内には、芳土庵（裏千家十一代玄々斎家元命名）陶土軒（裏千家十五代鵬雲斎家元命名）松濤間（前田家十八代利祐様命名）年々庵?大樋ギャラリー（裏千家十五代鵬雲斎家元命名  建築家?隈研吾氏設計）などがあります。,,"北陸自動車道 金沢東ICより車で15分,JR金沢駅より路線バスで橋場町バス停下車、徒歩1分",3台(無料),,,,,,,,,,,,,,,,,,,076-221-2397,,,,,,,,http://info@ohimuseum.com,,
170003,,JJ0000000183,石川県,大樋焼本家窯元,オオヒヤキホンケカマモト,ohiyakihonkekamamoto,,172014,,石川県金沢市南町5-8,石川県,金沢市,南町,5-8,,36.5665637,136.6541495,,,,10時00分～18時00分,,,（利用可能クレジットカード：VISA、JCB、MUFG、UC、Diners、AMEX）,,金沢の伝統工芸である大樋焼の窯元です。加賀藩百万石のお庭焼として、約360年の歴史があり、素朴で暖かい味わいのある抹茶碗は長年愛好されています。当窯は、大樋長楽、大樋勘兵衛、大樋朔芳 三代の作品を展示販売しています。,,",JR金沢駅より北鉄バス南町下車徒歩1分、尾山神社近く",無し,,,,,,,,,,,,,,,,,,,076-231-0306,,,,,,,,http://nttbj.itp.ne.jp/0762310306/,,
170003,,JJ0000000184,石川県,大海西山弥生の里,オオミニシヤマヤヨイノサト,ominishiyamayayoinosato,,172090,,石川県かほく市瀬戸町地内,石川県,かほく市,瀬戸町地内,,,36.77566463,136.7545492,,,,終日開放,,,無料,,"大海西山遺跡の保存と活用を目的として整備された施設です。1987(昭和62)年から1989（平成元）年の発掘調査によって発見された大海西山遺跡は、今から1,800年程前の弥生時代の終わりごろの遺跡で、1998（平成10）年には石川県の指定文化財になりました。東に宝達山、西には日本海、北には能登と加賀の境をなす大海川と、三方を豊かな自然に囲まれた絶景地です。家族そろってお弁当を持って出かけてみてはいかがでしょうか。（火は使わないでください。復元住居を大切にお願いします。）",,"のと里山海道高松ICより車で10分JR七尾線高松駅からタクシーで7分,",あり,,,,,,,,,,,,,,,,,,,--,,,,,,,,,,
170003,,JJ0000000185,石川県,岡部家（県指定有形文化財）,オカベケ（ケンシテイユウケイブンカザイ）,okabeke（kenshiteiyukeibunkazai）,,173860,,石川県羽咋郡宝達志水町荻谷ニ42番地,石川県,宝達志水町,石川県羽咋郡宝達志水町荻谷ニ,42番地,,36.855587,136.788926,,,,3月～11月　9:00~16:45　※最終入館者は16:00まで12月～2月　9:00～15:45　   ※最終入館者は15:00まで,,,一　般　500円＜団体20人以上　1名400円＞小中学生　200円＜団体20人以上　1名100円＞　※就学前の者は無料（利用可能クレジットカード：無し）,,鎌倉時代に源平合戦「一の谷の戦い」で手柄を立てた「岡部六弥太忠澄」に、鎌倉幕府が与えた領地の一つに口能登があり、ここに親族を送り込んだのが最初とされています。文化財である岡部家住宅は、元文元年8月（1736）に再建されたもので、茅葺き（麦藁・稲藁・茅による三重構造）屋根を持ち、加賀藩十村役所を務め、嘉永6年には、前田斎泰公による能登巡行において宿泊本陣を務めた格式を残しています。岡部家の室内や「能登の駒造」によると伝わる回泉式庭園などの豊かな空間は、静かな時間を享受できる場所として、また、ふるさとの歴史文化を学ぶ場としてお立ち寄りください。,,"自動車　のと里山海道今浜ICより10分,鉄道　敷浪駅より徒歩30分",普通車　20台マイクロバス　可能中型～大型バス　道が狭く進入不能,,,,,,,,,,,,,,,,,,宝達志水町埋蔵文化財センター,0767-28-5180,,,,,,,,https://www.hodatsushimizu.jp/kanko/kanko/3/4/architecture/1388.html,,
170003,,JJ0000000186,石川県,奥卯辰山健民公園,オクウタツヤマケンミンコウエン,okutatsuyamakemminkoen,,172014,,石川県金沢市若松町ア32,石川県,金沢市,若松町ア,32,,36.5597056,136.6962424,,,,,,,公式サイトをご覧ください。,,ゴルフ場跡の広大な芝生広場や池、庭園があり、その一部を利用したパークゴルフ場は、大人も子供も楽しくプレーできます。春には千本桜やバラ、秋には紅葉が楽しめます。バーベキュー場も喜ばれています。,,"金沢駅から約25分,卯辰山線 鈴見台経由 卯辰山千寿閣行で「鈴見台４丁目」下車し徒歩16分",あり,,,,,,,,,,,,,,,,,,,076-264-0395,,,,,,,,http://www.kgs-okuutatu.com/,,
170003,,JJ0000000187,石川県,奥村家屋敷（加賀八家）跡,オクムラケヤシキ（カガハッカ）アト,okumurakeyashiki（kagahakka）ato,,172014,,石川県金沢市下石引1-1（国立病院機構金沢医療センター）,石川県,金沢市,下石引,1-1（国立病院機構金沢医療センター）,,,,,,,,,,,,　加賀藩家老の八家、通称「加賀八家」のひとつである奥村家の屋敷跡の土塀です。家祖・奥村永福（ながとみ）は前田利久（加賀藩祖前田利家の兄）に仕え荒子城代を務めましたが、利家が前田家を相続した際に前田家を一旦、辞しました。再び利家に仕えたのは1573（天正元）年の朝倉氏討伐の時からで、後に長篠合戦、石動山合戦で軍功をたて、1585（天正12）年には、能登末森城の守将として佐々成政の攻撃から城を死守し、功名をあげました。八坂五山の永福寺は永福の開基です。,,",出羽町バス停すぐ",無し（近隣に石川県兼六園駐車場、石引駐車場等有り）,,,,,,,,,,,,,,,,,,,--,,,,,,,,,,
170003,,JJ0000000188,石川県,桶滝,オケダキ,okedaki,,172049,,石川県輪島市大沢町,石川県,輪島市,大沢町,,,37.370494,136.809458,,,,,,,無料			,,大沢の海に注ぐ桶滝川の上流約1キロにある滝です。突き出た巨岩に川の水が激しく当たり、長い年月のうちに岩石面に凹みをつくり、ついに3メートル余りの穴となって、その穴に河川が流れ込んでいます。その風景は、桶の底が抜けたようで、水が激しく落ちる様は迫力があります。,,"輪島市街から県道38号線で大沢方面へ「桶滝入口」の看板が見えたら左折してください。,・金沢駅から輪島特急バス乗車約2時間30分「輪島駅前」下車(乗り換え)「輪島駅前」から愛のりバス（西保コース）で「大沢」バス停下車（本数が少ないためお車での移動をおススメします）",数台分			,,,,,,,,,,,,,,,,,,西保公民館,0768-36-2001,,,,,,,,https://wajimanavi.jp/tourism/portfolio/oketaki/,,
